"id","url_id","company_id","region_id","name","locality","street_address","suite","city","county","state_code","zip","country","store_number","phone","orders_count","audits_count","latitude","longitude","active","created_at","updated_at"
"1","_NA_","31","0","Kroger","_NA_","7467 Saint Andrews Rd Ste","_NA_","Irmo","_NA_","SC","29063","US","_NA_","_NA_","0","3","34.087100983","-81.18430328","1","2014-12-25 04:09:38","2016-07-20 00:01:29"
"2","_NA_","31","0","Kroger","_NA_","3403 Forest Drive","_NA_","Columbia","_NA_","SC","29204","US","_NA_","_NA_","0","0","34.019901276","-80.99120331","1","2014-12-10 02:52:48","2016-07-20 00:01:29"
"3","_NA_","31","0","Kroger","_NA_","9610 N Kings Hwy","_NA_","Myrtle Beach","_NA_","SC","29572","US","16","_NA_","0","2","33.777000427","-78.79309845","1","2016-05-12 15:40:57","2016-07-20 00:01:29"
"4","_NA_","31","0","Kroger","_NA_","781 Main St","_NA_","North Myrtle Beach","_NA_","SC","29582","US","","_NA_","0","1","33.826400757","-78.67960358","1","2016-05-12 15:00:22","2016-07-20 00:01:29"
"5","_NA_","31","0","Kroger","_NA_","2939 S Highway 17","_NA_","Murrells Inlet","_NA_","SC","29576","US","25","_NA_","0","1","33.58380127","-79.01260376","1","2015-05-06 17:42:56","2016-07-20 00:01:29"
"6","_NA_","31","0","Kroger","_NA_","3735 Renee Dr","_NA_","Myrtle Beach","_NA_","SC","29579","US","26","_NA_","0","2","33.76089859","-78.96640015","1","2016-05-12 16:29:09","2016-07-20 00:01:29"
"7","_NA_","31","0","Kroger","_NA_","3300 Cobb Pkwy, Se, Suite","_NA_","Atlanta","_NA_","GA","30339","US","_NA_","_NA_","0","0","33.872600555","-84.45770264","1","2014-12-10 02:52:50","2016-07-20 00:01:29"
"8","_NA_","31","0","Kroger","_NA_","4498 Chamblee Dunwoody Rd","_NA_","Dunwoody","_NA_","GA","30338","US","_NA_","_NA_","0","0","33.922599792","-84.31569672","1","2014-12-10 02:52:50","2016-07-20 00:01:29"
"9","_NA_","31","0","Kroger","_NA_","3959 Lavista Rd Ste A","_NA_","Tucker","_NA_","GA","30084","US","_NA_","_NA_","0","0","33.84349823","-84.25559998","1","2014-12-10 02:52:50","2016-07-20 00:01:29"
"10","_NA_","31","0","Kroger","_NA_","3139 U.s. Highway 278 N.e","_NA_","Covington","_NA_","GA","30014","US","_NA_","_NA_","0","0","33.604400635","-83.85890198","1","2014-12-10 02:52:51","2016-07-20 00:01:29"
"11","_NA_","31","0","Kroger","_NA_","3855 Buford Hwy Ne","_NA_","Atlanta","_NA_","GA","30329","US","_NA_","_NA_","0","0","33.855499268","-84.31340027","1","2014-12-10 02:52:51","2016-07-20 00:01:29"
"12","_NA_","31","0","Kroger","_NA_","2626 Rainbow Way","_NA_","Decatur","_NA_","GA","30034","US","427","_NA_","0","1","33.711898804","-84.27069855","1","2015-01-28 19:37:56","2016-07-20 00:01:29"
"13","_NA_","31","0","Kroger","_NA_","3128 Deans Bridge Rd","_NA_","Augusta","_NA_","GA","30906","US","","_NA_","0","1","33.423900604","-82.05480194","1","2016-04-13 19:23:48","2016-07-20 00:01:29"
"14","_NA_","31","0","Kroger","_NA_","3435 Wrightsboro Rd","_NA_","Augusta","_NA_","GA","30909","US","","_NA_","0","1","33.46900177","-82.08139801","1","2016-04-13 15:32:09","2016-07-20 00:01:29"
"15","_NA_","31","0","Kroger","_NA_","4550 Jonesboro Rd","_NA_","Union City","_NA_","GA","30291","US","_NA_","_NA_","0","0","33.565799713","-84.53690338","1","2014-12-10 02:52:53","2016-07-20 00:01:29"
"16","_NA_","31","0","Kroger","_NA_","2301 College Station Rd","_NA_","Athens","_NA_","GA","30605","US","_NA_","_NA_","0","0","33.921699524","-83.34380341","1","2014-12-10 02:52:54","2016-07-20 00:01:29"
"17","_NA_","31","0","Kroger","_NA_","115 Russell Pkwy","_NA_","Warner Robins","_NA_","GA","31088","US","_NA_","_NA_","0","0","32.592300415","-83.62560272","1","2014-12-10 02:52:54","2016-07-20 00:01:29"
"18","_NA_","31","0","Kroger","_NA_","3330 Piedmont Rd Ne","_NA_","Atlanta","_NA_","GA","30305","US","","_NA_","0","1","33.846099854","-84.373703","1","2016-03-15 19:26:47","2016-07-20 00:01:29"
"19","_NA_","31","0","Kroger","_NA_","300 N Dean Rd","_NA_","Auburn","_NA_","AL","36830","US","_NA_","_NA_","0","0","32.610801697","-85.46330261","1","2014-12-10 02:52:55","2016-07-20 00:01:29"
"20","_NA_","31","0","Kroger","_NA_","1205 Cleveland Hwy","_NA_","Dalton","_NA_","GA","30721","US","265 ","_NA_","0","1","34.791999817","-84.96379852","1","2015-04-10 02:33:25","2016-07-20 00:01:29"
"21","_NA_","31","0","Kroger","_NA_","6199 Highway 92","_NA_","Acworth","_NA_","GA","30102","US","_NA_","_NA_","0","0","34.090400696","-84.58519745","1","2014-12-10 02:52:55","2016-07-20 00:01:29"
"22","_NA_","31","0","Kroger","_NA_","51 N Morningside Dr","_NA_","Cartersville","_NA_","GA","30121","US","_NA_","_NA_","0","0","34.168800354","-84.78649902","1","2014-12-10 02:52:57","2016-07-20 00:01:29"
"23","_NA_","31","0","Kroger","_NA_","4115 Columbia Rd","_NA_","Martinez","_NA_","GA","30907","US","","_NA_","0","1","33.508998871","-82.10810089","1","2016-04-12 19:32:27","2016-07-20 00:01:29"
"24","_NA_","31","0","Kroger","_NA_","725 Ponce De Leon Ave Ne","_NA_","Atlanta","_NA_","GA","30306","US","","_NA_","0","1","33.771701813","-84.36340332","1","2016-03-30 17:22:57","2016-07-20 00:01:29"
"25","_NA_","31","0","Kroger","_NA_","1700 Monroe Dr Ne","_NA_","Atlanta","_NA_","GA","30324","US","","_NA_","0","1","33.800498962","-84.3730011","1","2016-03-15 15:41:02","2016-07-20 00:01:29"
"26","_NA_","31","0","Kroger","_NA_","3479 Memorial Dr","_NA_","Decatur","_NA_","GA","30032","US","_NA_","_NA_","0","0","33.751998901","-84.26940155","1","2014-12-10 02:52:58","2016-07-20 00:01:29"
"27","_NA_","31","0","Kroger","_NA_","501 15th Street","_NA_","Augusta","_NA_","GA","30901","US","","_NA_","0","1","33.478199005","-81.98760223","1","2016-04-15 15:19:57","2016-07-20 00:01:29"
"28","_NA_","31","0","Kroger","_NA_","1401 S Gilmer Ave","_NA_","Lanett","_NA_","AL","36863","US","","_NA_","0","0","32.855800629","-85.19090271","1","2015-02-02 02:46:03","2016-07-20 00:01:29"
"29","_NA_","31","0","Kroger","_NA_","8331 Roswell Rd","_NA_","Atlanta","_NA_","GA","30350","US","_NA_","_NA_","0","0","33.982700348","-84.34809875","1","2014-12-10 02:52:59","2016-07-20 00:01:29"
"30","_NA_","31","0","Kroger","_NA_","134 Banks Xing","_NA_","Fayetteville","_NA_","GA","30214","US","_NA_","_NA_","0","0","33.469100952","-84.44889832","1","2014-12-10 02:52:59","2016-07-20 00:01:29"
"31","_NA_","31","0","Kroger","_NA_","2205 Lavista Rd Ne","_NA_","Atlanta","_NA_","GA","30329","US","","_NA_","0","1","33.815601349","-84.31369781","1","2016-03-12 20:29:20","2016-07-20 00:01:29"
"32","_NA_","31","0","Kroger","_NA_","7125 Ga Highway 85","_NA_","Riverdale","_NA_","GA","30274","US","_NA_","_NA_","0","0","33.560501099","-84.41600037","1","2014-12-10 02:53:01","2016-07-20 00:01:29"
"33","_NA_","31","0","Kroger","_NA_","1745 Ga-138 Se","_NA_","Conyers","_NA_","GA","30013","US","_NA_","_NA_","0","0","33.643901825","-84.01689911","1","2014-12-10 02:53:01","2016-07-20 00:01:29"
"34","_NA_","31","0","Kroger","_NA_","2090 Dunwoody Club Dr","_NA_","Atlanta","_NA_","GA","30350","US","","_NA_","0","1","33.963199615","-84.30899811","1","2016-03-22 19:35:26","2016-07-20 00:01:29"
"35","_NA_","31","0","Kroger","_NA_","660 North Ave","_NA_","Macon","_NA_","GA","31211","US","328","_NA_","0","1","32.850700378","-83.62619781","1","2015-04-09 20:46:03","2016-07-20 00:01:29"
"36","_NA_","31","0","Kroger","_NA_","1122 Powers Ferry Rd Se","_NA_","Marietta","_NA_","GA","30067","US","_NA_","_NA_","0","0","33.923000336","-84.46990204","1","2014-12-10 02:53:03","2016-07-20 00:01:29"
"37","_NA_","31","0","Kroger","_NA_","4880 Lower Roswell Rd","_NA_","Marietta","_NA_","GA","30068","US","","_NA_","0","1","33.964801788","-84.41010284","1","2016-03-19 15:21:27","2016-07-20 00:01:29"
"38","_NA_","31","0","Kroger","_NA_","203 Commerce Ave Ste A","_NA_","Lagrange","_NA_","GA","30241","US","_NA_","_NA_","0","0","33.050701141","-85.021698","1","2014-12-10 02:53:04","2016-07-20 00:01:29"
"39","_NA_","31","0","Kroger","_NA_","3000 Old Alabama Rd","_NA_","Alpharetta","_NA_","GA","30022","US","","_NA_","0","1","34.022701263","-84.27130127","1","2016-03-22 15:24:15","2016-07-20 00:01:29"
"40","_NA_","31","0","Kroger","_NA_","1715 Howell Mill Rd Nw","_NA_","Atlanta","_NA_","GA","30318","US","","_NA_","0","1","33.800998688","-84.415802","1","2016-03-24 15:24:40","2016-07-20 00:01:29"
"41","_NA_","31","0","Kroger","_NA_","4920 Roswell Rd","_NA_","Atlanta","_NA_","GA","30342","US","","_NA_","0","1","33.888500214","-84.38240051","1","2016-03-18 15:22:57","2016-07-20 00:01:29"
"42","_NA_","31","0","Kroger","_NA_","455 Grayson Hwy","_NA_","Lawrenceville","_NA_","GA","30046","US","_NA_","_NA_","0","0","33.938598633","-83.98300171","1","2014-12-10 02:53:06","2016-07-20 00:01:29"
"43","_NA_","31","0","Kroger","_NA_","1232 S Hairston Rd","_NA_","Stone Mountain","_NA_","GA","30088","US","_NA_","_NA_","0","0","33.759498596","-84.19490051","1","2014-12-10 02:53:06","2016-07-20 00:01:29"
"44","_NA_","31","0","Kroger","_NA_","4650 Forsyth Rd","_NA_","Macon","_NA_","GA","31210","US","_NA_","_NA_","0","0","32.873401642","-83.70999908","1","2014-12-10 02:53:07","2016-07-20 00:01:29"
"45","_NA_","31","0","Kroger","_NA_","3600 Dallas Hwy Sw","_NA_","Marietta","_NA_","GA","30064","US","_NA_","_NA_","0","0","33.955200195","-84.65619659","1","2014-12-10 02:53:07","2016-07-20 00:01:29"
"46","_NA_","31","0","Kroger","_NA_","1605 Buford Hwy","_NA_","Buford","_NA_","GA","30518","US","_NA_","_NA_","0","0","34.097198486","-84.00980377","1","2014-12-10 02:53:07","2016-07-20 00:01:29"
"47","_NA_","31","0","Kroger","_NA_","48 Bullsboro Dr","_NA_","Newnan","_NA_","GA","30263","US","_NA_","_NA_","0","0","33.384700775","-84.78780365","1","2014-12-10 02:53:08","2016-07-20 00:01:29"
"48","_NA_","31","0","Kroger","_NA_","2685 Metropolitan Pkwy Sw","_NA_","Atlanta","_NA_","GA","30315","US","_NA_","_NA_","0","0","33.681999207","-84.40910339","1","2014-12-10 02:53:08","2016-07-20 00:01:29"
"49","_NA_","31","0","Kroger","_NA_","3595 Canton Rd","_NA_","Marietta","_NA_","GA","30066","US","_NA_","_NA_","0","0","34.038799286","-84.52890015","1","2014-12-10 02:53:08","2016-07-20 00:01:29"
"50","_NA_","31","0","Kroger","_NA_","3251 Highway 5","_NA_","Douglasville","_NA_","GA","30135","US","_NA_","_NA_","0","0","33.719200134","-84.76629639","1","2014-12-10 02:53:08","2016-07-20 00:01:29"
"51","_NA_","31","0","Kroger","_NA_","1355 S Park St","_NA_","Carrollton","_NA_","GA","30117","US","_NA_","_NA_","0","0","33.554100037","-85.07350159","1","2014-12-10 02:53:09","2016-07-20 00:01:29"
"52","_NA_","31","0","Kroger","_NA_","3618 Highway 138, Se","_NA_","Stockbridge","_NA_","GA","30281","US","","_NA_","0","1","33.550300598","-84.27140045","1","2016-03-30 15:37:57","2016-07-20 00:01:29"
"53","_NA_","31","0","Kroger","_NA_","4002 Highway 78 W","_NA_","Snellville","_NA_","GA","30039","US","_NA_","_NA_","0","0","33.83649826","-84.06809998","1","2014-12-10 02:53:10","2016-07-20 00:01:29"
"54","_NA_","31","0","Kroger","_NA_","8059 Tara Blvd","_NA_","Jonesboro","_NA_","GA","30236","US","_NA_","_NA_","0","0","33.534099579","-84.36640167","1","2014-12-10 02:53:11","2016-07-20 00:01:29"
"55","_NA_","31","0","Kroger","_NA_","2100 Riverside Pkwy","_NA_","Lawrenceville","_NA_","GA","30043","US","_NA_","_NA_","0","0","33.966499329","-84.03369904","1","2014-12-10 02:53:11","2016-07-20 00:01:29"
"56","_NA_","31","0","Kroger","_NA_","2385 Wesley Chapel Rd","_NA_","Decatur","_NA_","GA","30035","US","_NA_","_NA_","0","0","33.718399048","-84.21749878","1","2014-12-10 02:53:11","2016-07-20 00:01:29"
"57","_NA_","31","0","Kroger","_NA_","630 Thornton Rd","_NA_","Lithia Springs","_NA_","GA","30122","US","_NA_","_NA_","0","0","33.789798737","-84.62020111","1","2014-12-10 02:53:12","2016-07-20 00:01:29"
"58","_NA_","31","0","Kroger","_NA_","220 Tom Hill Sr Blvd","_NA_","Macon","_NA_","GA","31210","US","378","_NA_","0","1","32.898899078","-83.69139862","1","2015-04-09 21:40:47","2016-07-20 00:01:29"
"59","_NA_","31","0","Kroger","_NA_","3455 Peachtree Industrial","_NA_","Duluth","_NA_","GA","30096","US","_NA_","_NA_","0","0","34.00630188","-84.17089844","1","2014-12-10 02:53:12","2016-07-20 00:01:29"
"60","_NA_","31","0","Kroger","_NA_","564 Crosstown Dr","_NA_","Peachtree City","_NA_","GA","30269","US","_NA_","_NA_","0","0","33.376899719","-84.56469727","1","2014-12-10 02:53:13","2016-07-20 00:01:29"
"61","_NA_","31","0","Kroger","_NA_","6050 Singleton Rd","_NA_","Norcross","_NA_","GA","30093","US","","_NA_","0","1","33.903400421","-84.19979858","1","2016-03-31 20:18:19","2016-07-20 00:01:29"
"62","_NA_","31","0","Kroger","_NA_","10945 State Bridge Rd","_NA_","Alpharetta","_NA_","GA","30022","US","","_NA_","0","1","34.049499512","-84.22280121","1","2016-03-20 19:47:00","2016-07-20 00:01:29"
"63","_NA_","31","0","Kroger","_NA_","8501 Hospital Dr","_NA_","Douglasville","_NA_","GA","30134","US","_NA_","_NA_","0","0","33.749298096","-84.73239899","1","2014-12-10 02:53:15","2016-07-20 00:01:29"
"64","_NA_","31","0","Kroger","_NA_","136 W Belmont Dr","_NA_","Calhoun","_NA_","GA","30701","US","393","_NA_","0","1","34.478099823","-84.93759918","1","2015-04-10 01:33:24","2016-07-20 00:01:29"
"65","_NA_","31","0","Kroger","_NA_","3050 Five Forks Trickum R","_NA_","Lilburn","_NA_","GA","30047","US","_NA_","_NA_","0","0","33.884601593","-84.05999756","1","2014-12-10 02:53:15","2016-07-20 00:01:29"
"66","_NA_","31","0","Kroger","_NA_","3330 Cobb Pkwy, Nw, Suite","_NA_","Acworth","_NA_","GA","30101","US","_NA_","_NA_","0","0","34.036201477","-84.67690277","1","2014-12-10 02:53:15","2016-07-20 00:01:29"
"67","_NA_","31","0","Kroger","_NA_","100 Spalding Village","_NA_","Griffin","_NA_","GA","30223","US","_NA_","_NA_","0","0","33.24779892","-84.24700165","1","2014-12-10 02:53:16","2016-07-20 00:01:29"
"68","_NA_","31","0","Kroger","_NA_","4321 Hartley Bridge Rd","_NA_","Macon","_NA_","GA","31216","US","_NA_","_NA_","0","0","32.74489975","-83.71360016","1","2014-12-10 02:53:16","2016-07-20 00:01:29"
"69","_NA_","31","0","Kroger","_NA_","4045 Marietta Hwy","_NA_","Canton","_NA_","GA","30114","US","_NA_","_NA_","0","0","34.193099976","-84.50759888","1","2014-12-10 02:53:16","2016-07-20 00:01:29"
"70","_NA_","31","0","Kroger","_NA_","14010 Abercorn St","_NA_","Savannah","_NA_","GA","31419","US","","_NA_","0","1","31.97990036","-81.1713028","1","2016-04-09 15:45:25","2016-07-20 00:01:29"
"71","_NA_","31","0","Kroger","_NA_","301 Jonesboro Road","_NA_","Mcdonough","_NA_","GA","30253","US","","_NA_","0","1","33.452800751","-84.1697998","1","2016-03-30 14:34:18","2016-07-20 00:01:29"
"72","_NA_","31","0","Kroger","_NA_","1367 Sam Nunn Blvd","_NA_","Perry","_NA_","GA","31069","US","_NA_","_NA_","0","0","32.467399597","-83.74140167","1","2014-12-10 02:53:18","2016-07-20 00:01:29"
"73","_NA_","31","0","Kroger","_NA_","8020 Cumming Hwy","_NA_","Canton","_NA_","GA","30115","US","_NA_","_NA_","0","0","34.252998352","-84.35829926","1","2014-12-10 02:53:19","2016-07-20 00:01:29"
"74","_NA_","31","0","Kroger","_NA_","817 St. Andrews Road","_NA_","Columbia","_NA_","SC","29210","US","","_NA_","0","1","34.046901703","-81.1155014","1","2015-04-03 14:51:39","2016-07-20 00:01:29"
"75","_NA_","31","0","Kroger","_NA_","400 Pio Nono Ave","_NA_","Macon","_NA_","GA","31204","US","_NA_","_NA_","0","0","32.842300415","-83.6595993","1","2014-12-10 02:53:19","2016-07-20 00:01:29"
"76","_NA_","31","0","Kroger","_NA_","4628 Presidential Pkwy","_NA_","Macon","_NA_","GA","31206","US","_NA_","_NA_","0","0","32.819000244","-83.71099854","1","2014-12-10 02:53:20","2016-07-20 00:01:29"
"77","_NA_","31","0","Kroger","_NA_","590 Cascade Ave Sw","_NA_","Atlanta","_NA_","GA","30310","US","_NA_","_NA_","0","0","33.737998962","-84.43299866","1","2014-12-10 02:53:20","2016-07-20 00:01:29"
"78","_NA_","31","0","Kroger","_NA_","10375 Tara Blvd","_NA_","Jonesboro","_NA_","GA","30236","US","_NA_","_NA_","0","0","33.472198486","-84.33850098","1","2014-12-10 02:53:21","2016-07-20 00:01:29"
"79","_NA_","31","0","Kroger","_NA_","4355 WA Rd","_NA_","Evans","_NA_","GA","30809","US","_NA_","_NA_","0","0","33.533699036","-82.13069916","1","2014-12-10 02:53:21","2016-07-20 00:01:29"
"80","_NA_","31","0","Kroger","_NA_","12460 Crabapple Rd","_NA_","Alpharetta","_NA_","GA","30004","US","","_NA_","0","1","34.085201263","-84.35720062","1","2016-03-20 15:41:49","2016-07-20 00:01:29"
"81","_NA_","31","0","Kroger","_NA_","7380 Spout Springs Rd","_NA_","Flowery Branch","_NA_","GA","30542","US","_NA_","_NA_","0","0","34.107498169","-83.8757019","1","2014-12-10 02:53:22","2016-07-20 00:01:29"
"82","_NA_","31","0","Kroger","_NA_","311 E Gwinnett St","_NA_","Savannah","_NA_","GA","31401","US","_NA_","_NA_","0","0","32.065898895","-81.09269714","1","2014-12-10 02:53:23","2016-07-20 00:01:29"
"83","_NA_","31","0","Kroger","_NA_","12050 Highway 92 Ste 112","_NA_","Woodstock","_NA_","GA","30188","US","_NA_","_NA_","0","0","34.08649826","-84.48590088","1","2014-12-10 02:53:24","2016-07-20 00:01:29"
"84","_NA_","31","0","Kroger","_NA_","3150 Highway 34 E","_NA_","Newnan","_NA_","GA","30265","US","_NA_","_NA_","0","0","33.409301758","-84.68009949","1","2014-12-10 02:53:24","2016-07-20 00:01:29"
"85","_NA_","31","0","Kroger","_NA_","1101 N Peachtree Pkwy","_NA_","Peachtree City","_NA_","GA","30269","US","_NA_","_NA_","0","0","33.440700531","-84.59059906","1","2014-12-10 02:53:24","2016-07-20 00:01:29"
"86","_NA_","31","0","Kroger","_NA_","5633 Ga Highway 21 S","_NA_","Rincon","_NA_","GA","31326","US","","_NA_","0","1","32.264499664","-81.22000122","1","2016-04-10 15:42:42","2016-07-20 00:01:29"
"87","_NA_","31","0","Kroger","_NA_","1475 Buford Dr","_NA_","Lawrenceville","_NA_","GA","30043","US","_NA_","_NA_","0","0","34.00510025","-83.98609924","1","2014-12-10 02:53:25","2016-07-20 00:01:29"
"88","_NA_","31","0","Kroger","_NA_","5928 Zebulon Rd","_NA_","Macon","_NA_","GA","31210","US","_NA_","_NA_","0","0","32.878200531","-83.7602005","1","2014-12-10 02:53:25","2016-07-20 00:01:29"
"89","_NA_","31","0","Kroger","_NA_","400 Peachtree Industrial","_NA_","Suwanee","_NA_","GA","30024","US","","_NA_","0","1","34.063899994","-84.0727005","1","2016-03-31 21:12:36","2016-07-20 00:01:29"
"90","_NA_","31","0","Kroger","_NA_","101 Fairview Rd","_NA_","Ellenwood","_NA_","GA","30294","US","_NA_","_NA_","0","0","33.619300842","-84.2390976","1","2014-12-10 02:53:26","2016-07-20 00:01:29"
"91","_NA_","31","0","Kroger","_NA_","191 Alps Rd","_NA_","Athens","_NA_","GA","30606","US","_NA_","_NA_","0","0","33.946098328","-83.40670013","1","2014-12-10 02:53:26","2016-07-20 00:01:29"
"92","_NA_","31","0","Kroger","_NA_","730 N Main St","_NA_","Cedartown","_NA_","GA","30125","US","_NA_","_NA_","0","0","34.024898529","-85.24859619","1","2014-12-10 02:53:27","2016-07-20 00:01:29"
"93","_NA_","31","0","Kroger","_NA_","5339 Old Highway 5","_NA_","Woodstock","_NA_","GA","30188","US","_NA_","_NA_","0","0","34.141399384","-84.50379944","1","2014-12-10 02:53:28","2016-07-20 00:01:29"
"94","_NA_","31","0","Kroger","_NA_","570 E Crossville Rd","_NA_","Roswell","_NA_","GA","30075","US","_NA_","_NA_","0","0","34.04019928","-84.34549713","1","2014-12-10 02:53:28","2016-07-20 00:01:29"
"95","_NA_","31","0","Kroger","_NA_","2325 Bethelview Rd","_NA_","Cumming","_NA_","GA","30040","US","_NA_","_NA_","0","0","34.238399506","-84.19319916","1","2014-12-10 02:53:28","2016-07-20 00:01:29"
"96","_NA_","31","0","Kroger","_NA_","5900 East Lake Pkwy","_NA_","Mcdonough","_NA_","GA","30253","US","_NA_","_NA_","0","0","33.506401062","-84.14320374","1","2014-12-10 02:53:29","2016-07-20 00:01:29"
"97","_NA_","31","0","Kroger","_NA_","3651 Peachtree Pkwy","_NA_","Suwanee","_NA_","GA","30024","US","_NA_","_NA_","0","0","34.069400787","-84.165802","1","2014-12-10 02:53:29","2016-07-20 00:01:29"
"98","_NA_","31","0","Kroger","_NA_","1720 Epps Bridge Pkwy","_NA_","Athens","_NA_","GA","30606","US","_NA_","_NA_","0","0","33.913398743","-83.4464035","1","2014-12-10 02:53:29","2016-07-20 00:01:29"
"99","_NA_","31","0","Kroger","_NA_","5341 Highway 20 S","_NA_","Covington","_NA_","GA","30016","US","_NA_","_NA_","0","0","33.549198151","-84.01529694","1","2014-12-10 02:53:30","2016-07-20 00:01:29"
"100","_NA_","31","0","Kroger","_NA_","3630 Thompson Bridge Rd","_NA_","Gainesville","_NA_","GA","30506","US","_NA_","_NA_","0","0","34.373600006","-83.86979675","1","2014-12-10 02:53:30","2016-07-20 00:01:29"
"101","_NA_","31","0","Kroger","_NA_","4155 Lawrenceville Hwy Nw","_NA_","Lilburn","_NA_","GA","30047","US","_NA_","_NA_","0","0","33.904800415","-84.12110138","1","2014-12-10 02:53:30","2016-07-20 00:01:29"
"102","_NA_","31","0","Kroger","_NA_","1606 Memorial Dr","_NA_","Waycross","_NA_","GA","31501","US","439","_NA_","0","1","31.207099915","-82.33899689","1","2015-04-09 17:25:14","2016-07-20 00:01:29"
"103","_NA_","31","0","Kroger","_NA_","950 Herrington Rd","_NA_","Lawrenceville","_NA_","GA","30044","US","_NA_","_NA_","0","0","33.94039917","-84.08309937","1","2014-12-10 02:53:32","2016-07-20 00:01:29"
"104","_NA_","31","0","Kroger","_NA_","2300 Holcomb Bridge Rd","_NA_","Roswell","_NA_","GA","30076","US","_NA_","_NA_","0","0","34.006599426","-84.29440308","1","2014-12-10 02:53:32","2016-07-20 00:01:29"
"105","_NA_","31","0","Kroger","_NA_","1720 Mars Hill Rd Nw","_NA_","Acworth","_NA_","GA","30101","US","_NA_","_NA_","0","0","33.996498108","-84.70600128","1","2014-12-10 02:53:32","2016-07-20 00:01:29"
"106","_NA_","31","0","Kroger","_NA_","910 Athens Hwy","_NA_","Loganville","_NA_","GA","30052","US","_NA_","_NA_","0","0","33.859401703","-83.95459747","1","2014-12-10 02:53:33","2016-07-20 00:01:29"
"107","_NA_","31","0","Kroger","_NA_","5665 Atlanta Hwy","_NA_","Alpharetta","_NA_","GA","30004","US","_NA_","_NA_","0","0","34.145000458","-84.25090027","1","2014-12-10 02:53:33","2016-07-20 00:01:29"
"108","_NA_","31","0","Kroger","_NA_","6678 Covington Hwy","_NA_","Lithonia","_NA_","GA","30058","US","_NA_","_NA_","0","0","33.718299866","-84.14450073","1","2014-12-10 02:53:34","2016-07-20 00:01:29"
"109","_NA_","31","0","Kroger","_NA_","3895 Cherokee St Nw","_NA_","Kennesaw","_NA_","GA","30144","US","446","_NA_","0","1","34.049301147","-84.60220337","1","2015-04-10 00:16:11","2016-07-20 00:01:29"
"110","_NA_","31","0","Kroger","_NA_","965 N Hairston Rd","_NA_","Stone Mountain","_NA_","GA","30083","US","_NA_","_NA_","0","0","33.805000305","-84.19139862","1","2014-12-10 02:53:34","2016-07-20 00:01:29"
"111","_NA_","31","0","Kroger","_NA_","10136 Two Notch Rd","_NA_","Columbia","_NA_","SC","29229","US","_NA_","_NA_","0","0","34.117099762","-80.88150024","1","2014-12-10 02:53:34","2016-07-20 00:01:29"
"112","_NA_","31","0","Kroger","_NA_","1227 Rockbridge Rd","_NA_","Stone Mountain","_NA_","GA","30087","US","_NA_","_NA_","0","0","33.841201782","-84.13300323","1","2014-12-10 02:53:36","2016-07-20 00:01:29"
"113","_NA_","31","0","Kroger","_NA_","4715 S Atlanta Road","_NA_","Smyrna","_NA_","GA","30080","US","_NA_","_NA_","0","0","33.838798523","-84.48179626","1","2014-12-10 02:53:36","2016-07-20 00:01:29"
"114","_NA_","31","0","Kroger","_NA_","4150 Macland Rd","_NA_","Powder Springs","_NA_","GA","30127","US","_NA_","_NA_","0","0","33.903400421","-84.67459869","1","2014-12-10 02:53:37","2016-07-20 00:01:29"
"115","_NA_","31","0","Kroger","_NA_","2100 Roswell Rd Ste 2140","_NA_","Marietta","_NA_","GA","30062","US","_NA_","_NA_","0","0","33.967498779","-84.4878006","1","2014-12-10 02:53:37","2016-07-20 00:01:29"
"116","_NA_","31","0","Kroger","_NA_","1000 Whitlock Ave Nw","_NA_","Marietta","_NA_","GA","30064","US","_NA_","_NA_","0","0","33.953300476","-84.58129883","1","2014-12-10 02:53:37","2016-07-20 00:01:29"
"117","_NA_","31","0","Kroger","_NA_","4400 Brownsville Rd","_NA_","Powder Springs","_NA_","GA","30127","US","_NA_","_NA_","0","0","33.846599579","-84.69909668","1","2014-12-10 02:53:37","2016-07-20 00:01:29"
"118","_NA_","31","0","Kroger","_NA_","2700 Braselton Hwy","_NA_","Dacula","_NA_","GA","30019","US","_NA_","_NA_","0","0","34.051498413","-83.93019867","1","2014-12-10 02:53:38","2016-07-20 00:01:29"
"119","_NA_","31","0","Kroger","_NA_","1365 W Walnut Ave","_NA_","Dalton","_NA_","GA","30720","US","458","_NA_","0","1","34.758800507","-84.99449921","1","2015-04-10 02:09:42","2016-07-20 00:01:29"
"120","_NA_","31","0","Kroger","_NA_","2875 N Decatur Rd","_NA_","Decatur","_NA_","GA","30033","US","","_NA_","0","1","33.792198181","-84.27339935","1","2016-03-12 16:39:27","2016-07-20 00:01:29"
"121","_NA_","31","0","Kroger","_NA_","7 Diamond Cswy","_NA_","Savannah","_NA_","GA","31406","US","","_NA_","0","1","31.956800461","-81.09809875","1","2016-04-08 15:32:48","2016-07-20 00:01:29"
"122","_NA_","31","0","Kroger","_NA_","1225 Caroline St Ne","_NA_","Atlanta","_NA_","GA","30307","US","","_NA_","0","2","33.756099701","-84.34799957","1","2016-03-30 16:58:22","2016-07-20 00:01:29"
"123","_NA_","31","0","Kroger","_NA_","3030 Headland Dr Sw","_NA_","Atlanta","_NA_","GA","30311","US","_NA_","_NA_","0","0","33.687900543","-84.48760223","1","2014-12-10 02:53:40","2016-07-20 00:01:29"
"124","_NA_","31","0","Kroger","_NA_","2295 Towne Lake Pkwy","_NA_","Woodstock","_NA_","GA","30189","US","_NA_","_NA_","0","0","34.112701416","-84.55560303","1","2014-12-10 02:53:41","2016-07-20 00:01:29"
"125","_NA_","31","0","Kroger","_NA_","4875 Floyd Rd Sw","_NA_","Mableton","_NA_","GA","30126","US","_NA_","_NA_","0","0","33.834999084","-84.57479858","1","2014-12-10 02:53:41","2016-07-20 00:01:29"
"126","_NA_","31","0","Kroger","_NA_","3425 Cascade Rd Sw","_NA_","Atlanta","_NA_","GA","30311","US","_NA_","_NA_","0","0","33.724098206","-84.49970245","1","2014-12-10 02:53:41","2016-07-20 00:01:29"
"127","_NA_","31","0","Kroger","_NA_","227 Sandy Springs Pl Ne","_NA_","Sandy Springs","_NA_","GA","30328","US","","_NA_","0","1","33.920200348","-84.38220215","1","2016-03-18 19:30:35","2016-07-20 00:01:29"
"128","_NA_","31","0","Kroger","_NA_","11877 Douglas Rd","_NA_","Alpharetta","_NA_","GA","30005","US","_NA_","_NA_","0","0","34.069198608","-84.207901","1","2014-12-10 02:53:42","2016-07-20 00:01:29"
"129","_NA_","31","0","Kroger","_NA_","78 Dawson Village Way Nor","_NA_","Dawsonville","_NA_","GA","30534","US","_NA_","_NA_","0","0","34.378101349","-84.01300049","1","2014-12-10 02:53:42","2016-07-20 00:01:29"
"130","_NA_","31","0","Kroger","_NA_","6055 Old National Hwy","_NA_","College Park","_NA_","GA","30349","US","_NA_","_NA_","0","0","33.590400696","-84.47049713","1","2014-12-10 02:53:43","2016-07-20 00:01:29"
"131","_NA_","31","0","Kroger","_NA_","2655 Freedom Pkwy","_NA_","Cumming","_NA_","GA","30041","US","_NA_","_NA_","0","0","34.250801086","-84.09120178","1","2014-12-10 02:53:43","2016-07-20 00:01:29"
"132","_NA_","31","0","Kroger","_NA_","4919 Flat Shoals Pkwy","_NA_","Decatur","_NA_","GA","30034","US","_NA_","_NA_","0","0","33.680301666","-84.22889709","1","2014-12-10 02:53:44","2016-07-20 00:01:29"
"133","_NA_","31","0","Kroger","_NA_","6555 Sugarloaf Pkwy","_NA_","Duluth","_NA_","GA","30097","US","_NA_","_NA_","0","0","33.997200012","-84.08959961","1","2014-12-10 02:53:44","2016-07-20 00:01:29"
"134","_NA_","31","0","Kroger","_NA_","2121 Lawrenceville Suwane","_NA_","Suwanee","_NA_","GA","30024","US","_NA_","_NA_","0","0","34.003299713","-84.03910065","1","2014-12-10 02:53:45","2016-07-20 00:01:29"
"135","_NA_","31","0","Kroger","_NA_","3162 Johnson Ferry Rd","_NA_","Marietta","_NA_","GA","30062","US","","_NA_","0","1","34.026000977","-84.42199707","1","2016-03-19 19:23:24","2016-07-20 00:01:29"
"136","_NA_","31","0","Kroger","_NA_","3559 Chamblee Tucker Rd","_NA_","Atlanta","_NA_","GA","30341","US","_NA_","_NA_","0","0","33.883800507","-84.24780273","1","2014-12-10 02:53:46","2016-07-20 00:01:29"
"137","_NA_","31","0","Kroger","_NA_","1911 Grayson Hwy","_NA_","Grayson","_NA_","GA","30017","US","_NA_","_NA_","0","0","33.897701263","-83.96140289","1","2014-12-10 02:53:46","2016-07-20 00:01:29"
"138","_NA_","31","0","Kroger","_NA_","4357 Lawrenceville Hwy","_NA_","Tucker","_NA_","GA","30084","US","_NA_","_NA_","0","0","33.855201721","-84.2071991","1","2014-12-10 02:53:46","2016-07-20 00:01:29"
"139","_NA_","31","0","Kroger","_NA_","1670 Scenic Hwy Sw","_NA_","Snellville","_NA_","GA","30078","US","_NA_","_NA_","0","0","33.882701874","-84.00800323","1","2014-12-10 02:53:46","2016-07-20 00:01:29"
"140","_NA_","31","0","Kroger","_NA_","3035 Scenic Hwy S, Suite","_NA_","Snellville","_NA_","GA","30039","US","_NA_","_NA_","0","0","33.824798584","-84.03320312","1","2014-12-10 02:53:47","2016-07-20 00:01:29"
"141","_NA_","31","0","Kroger","_NA_","3875 Chapel Hill Rd","_NA_","Douglasville","_NA_","GA","30135","US","_NA_","_NA_","0","0","33.69960022","-84.71859741","1","2014-12-10 02:53:47","2016-07-20 00:01:29"
"142","_NA_","31","0","Kroger","_NA_","1595 Peachtree Pkwy","_NA_","Cumming","_NA_","GA","30041","US","_NA_","_NA_","0","0","34.122299194","-84.1690979","1","2014-12-10 02:53:48","2016-07-20 00:01:29"
"143","_NA_","31","0","Kroger","_NA_","555 W Oglethorpe Hwy","_NA_","Hinesville","_NA_","GA","31313","US","_NA_","_NA_","0","0","31.835699081","-81.59770203","1","2014-12-10 02:53:49","2016-07-20 00:01:29"
"144","_NA_","31","0","Kroger","_NA_","1160 Moreland Ave Se","_NA_","Atlanta","_NA_","GA","30316","US","","_NA_","0","1","33.722400665","-84.3483963","1","2016-03-30 16:39:34","2016-07-20 00:01:29"
"145","_NA_","31","0","Kroger","_NA_","805 Glynn St S Ste 117","_NA_","Fayetteville","_NA_","GA","30214","US","_NA_","_NA_","0","0","33.432899475","-84.45880127","1","2014-12-10 02:53:49","2016-07-20 00:01:29"
"146","_NA_","31","0","Kroger","_NA_","3871 Peachtree Rd Ne","_NA_","Atlanta","_NA_","GA","30319","US","","_NA_","0","1","33.857498169","-84.34480286","1","2016-03-23 19:27:40","2016-07-20 00:01:29"
"147","_NA_","31","0","Kroger","_NA_","5664 Jonesboro Rd","_NA_","Lake City","_NA_","GA","30260","US","","_NA_","0","1","33.600399017","-84.3368988","1","2016-03-30 16:13:23","2016-07-20 00:01:29"
"148","_NA_","31","0","Kroger","_NA_","1750 Hudson Bridge Rd","_NA_","Stockbridge","_NA_","GA","30281","US","493","_NA_","0","2","33.503101349","-84.24420166","1","2016-03-30 14:58:29","2016-07-20 00:01:29"
"149","_NA_","31","0","Kroger","_NA_","3300 Hamilton Mill Rd","_NA_","Buford","_NA_","GA","30519","US","_NA_","_NA_","0","0","34.093101501","-83.9375","1","2014-12-10 02:53:51","2016-07-20 00:01:29"
"150","_NA_","31","0","Kroger","_NA_","12870 State Highway 9","_NA_","Alpharetta","_NA_","GA","30004","US","","_NA_","0","1","34.096298218","-84.27780151","1","2016-03-14 19:33:30","2016-07-20 00:01:29"
"151","_NA_","31","0","Kroger","_NA_","900 Marietta Hwy","_NA_","Roswell","_NA_","GA","30075","US","_NA_","_NA_","0","0","34.0041008","-84.38939667","1","2014-12-10 02:53:51","2016-07-20 00:01:29"
"152","_NA_","31","0","Kroger","_NA_","1690 Powder Springs Rd Sw","_NA_","Marietta","_NA_","GA","30064","US","_NA_","_NA_","0","0","33.908100128","-84.60240173","1","2014-12-10 02:53:53","2016-07-20 00:01:29"
"153","_NA_","31","0","Kroger","_NA_","125 Towne Dr","_NA_","Bluffton","_NA_","SC","29910","US","_NA_","_NA_","0","0","32.268299103","-80.85829926","1","2014-12-10 02:53:53","2016-07-20 00:01:29"
"154","_NA_","31","0","Kroger","_NA_","495 Johnny Mercer Blvd","_NA_","Savannah","_NA_","GA","31410","US","_NA_","_NA_","0","0","32.015701294","-80.97740173","1","2014-12-10 02:53:53","2016-07-20 00:01:29"
"155","_NA_","31","0","Kroger","_NA_","4815 Ridge Rd","_NA_","Douglasville","_NA_","GA","30134","US","_NA_","_NA_","0","0","33.818901062","-84.81210327","1","2014-12-10 02:53:53","2016-07-20 00:01:29"
"156","_NA_","31","0","Kroger","_NA_","700 Us Hwy 29 N","_NA_","Athens","_NA_","GA","30601","US","_NA_","_NA_","0","0","33.996299744","-83.33589935","1","2014-12-10 02:53:54","2016-07-20 00:01:29"
"157","_NA_","31","0","Kroger","_NA_","1524 Hwy 16 West","_NA_","Griffin","_NA_","GA","30223","US","_NA_","_NA_","0","0","33.244998932","-84.29419708","1","2014-12-10 02:53:54","2016-07-20 00:01:29"
"158","_NA_","31","0","Kroger","_NA_","115 Bill Wigington Pkwy","_NA_","Jasper","_NA_","GA","30143","US","_NA_","_NA_","0","0","34.466598511","-84.46219635","1","2014-12-10 02:53:54","2016-07-20 00:01:29"
"159","_NA_","31","0","Kroger","_NA_","3700 Salem Rd","_NA_","Covington","_NA_","GA","30016","US","_NA_","_NA_","0","0","33.593898773","-83.96820068","1","2014-12-10 02:53:55","2016-07-20 00:01:29"
"160","_NA_","31","0","Kroger","_NA_","2460 Enterprise Dr","_NA_","Opelika","_NA_","AL","36801","US","_NA_","_NA_","0","0","32.620700836","-85.41179657","1","2014-12-10 02:53:55","2016-07-20 00:01:29"
"161","_NA_","31","0","Kroger","_NA_","4025 Winder Hwy","_NA_","Flowery Branch","_NA_","GA","30542","US","_NA_","_NA_","0","0","34.196300507","-83.85710144","1","2014-12-10 02:53:55","2016-07-20 00:01:29"
"162","_NA_","31","0","Kroger","_NA_","8876 Dallas Acworth Hwy","_NA_","Dallas","_NA_","GA","30132","US","_NA_","_NA_","0","0","34.010700226","-84.75209808","1","2014-12-10 02:53:57","2016-07-20 00:01:29"
"163","_NA_","31","0","Kroger","_NA_","505 Dacula Rd","_NA_","Dacula","_NA_","GA","30019","US","_NA_","_NA_","0","0","34.00120163","-83.90579987","1","2014-12-10 02:53:57","2016-07-20 00:01:29"
"164","_NA_","31","0","Kroger","_NA_","3093 Steve Reynolds Blvd","_NA_","Duluth","_NA_","GA","30096","US","_NA_","_NA_","0","0","33.960998535","-84.14189911","1","2014-12-10 02:53:57","2016-07-20 00:01:29"
"165","_NA_","31","0","Kroger","_NA_","1685 Old Pendergrass Rd","_NA_","Jefferson","_NA_","GA","30549","US","_NA_","_NA_","0","0","34.122001648","-83.60710144","1","2014-12-10 02:53:57","2016-07-20 00:01:29"
"166","_NA_","31","0","Kroger","_NA_","1284 Knox Ave","_NA_","North Augusta","_NA_","SC","29841","US","","_NA_","0","1","33.50630188","-81.96040344","1","2016-04-15 23:07:16","2016-07-20 00:01:29"
"167","_NA_","31","0","Kroger","_NA_","774 Highway 96","_NA_","Bonaire","_NA_","GA","31005","US","_NA_","_NA_","0","0","32.554000854","-83.6595993","1","2014-12-10 02:53:58","2016-07-20 00:01:29"
"168","_NA_","31","0","Kroger","_NA_","5720 Ogeechee Rd","_NA_","Savannah","_NA_","GA","31405","US","","_NA_","0","1","32.027198792","-81.22570038","1","2016-04-09 19:36:04","2016-07-20 00:01:29"
"169","_NA_","31","0","Kroger","_NA_","1751 Newnan Crossing Blvd","_NA_","Newnan","_NA_","GA","30265","US","_NA_","_NA_","0","0","33.37720108","-84.75189972","1","2014-12-10 02:53:59","2016-07-20 00:01:29"
"170","_NA_","31","0","Kroger","_NA_","720 Commerce Dr","_NA_","Decatur","_NA_","GA","30030","US","","_NA_","0","1","33.778301239","-84.29319763","1","2016-03-13 19:32:34","2016-07-20 00:01:29"
"171","_NA_","31","0","Kroger","_NA_","2036 Johnson Ferry Rd, Ne","_NA_","Atlanta","_NA_","GA","30319","US","","_NA_","0","1","33.894500732","-84.33039856","1","2016-03-23 15:33:15","2016-07-20 00:01:29"
"172","_NA_","31","0","Kroger","_NA_","8465 Holcomb Bridge Rd, S","_NA_","Johns Creek","_NA_","GA","30022","US","_NA_","_NA_","0","0","33.987998962","-84.270401","1","2014-12-10 02:54:01","2016-07-20 00:01:29"
"173","_NA_","31","0","Kroger","_NA_","1799 Briarcliff Rd Ne","_NA_","Atlanta","_NA_","GA","30306","US","","_NA_","0","2","33.804199219","-84.33640289","1","2016-03-30 19:29:45","2016-07-20 00:01:29"
"174","_NA_","31","0","Kroger","_NA_","2960 Shallowford Rd","_NA_","Marietta","_NA_","GA","30066","US","_NA_","_NA_","0","0","34.034698486","-84.46649933","1","2014-12-10 02:54:02","2016-07-20 00:01:29"
"175","_NA_","31","0","Kroger","_NA_","1476 Turner Mccall Blvd S","_NA_","Rome","_NA_","GA","30161","US","_NA_","_NA_","0","0","34.248600006","-85.16320038","1","2014-12-10 02:54:02","2016-07-20 00:01:29"
"176","_NA_","31","0","Kroger","_NA_","42 Shelter Cove Lane","_NA_","Hilton Head","_NA_","SC","29928","US","_NA_","_NA_","0","0","32.185699463","-80.72000122","1","2014-12-10 02:54:02","2016-07-20 00:01:29"
"177","_NA_","31","0","Kroger","_NA_","455 Nathan Dean Blvd","_NA_","Dallas","_NA_","GA","30132","US","_NA_","_NA_","0","0","33.910800934","-84.82279968","1","2014-12-10 02:54:03","2016-07-20 00:01:29"
"178","_NA_","31","0","Kroger","_NA_","1100 Hillcrest Pkwy","_NA_","Dublin","_NA_","GA","31021","US","_NA_","_NA_","0","0","32.544498444","-82.9375","1","2014-12-10 02:54:03","2016-07-20 00:01:29"
"179","_NA_","31","0","Kroger","_NA_","1795 Whiskey Rd","_NA_","Aiken","_NA_","SC","29803","US","_NA_","_NA_","0","0","33.523601532","-81.72200012","1","2014-12-10 02:54:03","2016-07-20 00:01:29"
"180","_NA_","31","0","Kroger","_NA_","2801 WA Road","_NA_","Augusta","_NA_","GA","30909","US","_NA_","_NA_","0","0","33.464698792","-82.0734024","1","2014-12-10 02:54:04","2016-07-20 00:01:29"
"181","_NA_","31","0","Kroger","_NA_","4753 Atlanta Hwy","_NA_","Loganville","_NA_","GA","30052","US","_NA_","_NA_","0","0","33.831199646","-83.88430023","1","2014-12-10 02:54:04","2016-07-20 00:01:29"
"182","_NA_","31","0","Kroger","_NA_","6766 Hickory Flat Hwy","_NA_","Canton","_NA_","GA","30115","US","_NA_","_NA_","0","0","34.171398163","-84.41649628","1","2014-12-10 02:54:05","2016-07-20 00:01:29"
"183","_NA_","31","0","Kroger","_NA_","1931 Jesse Jewell Parkway","_NA_","Gainesville","_NA_","GA","30501","US","_NA_","_NA_","0","0","34.307098389","-83.80609894","1","2014-12-10 02:54:06","2016-07-20 00:01:29"
"184","_NA_","31","0","Kroger","_NA_","6001 Cumming Hwy","_NA_","Sugar Hill","_NA_","GA","30518","US","_NA_","_NA_","0","0","34.122001648","-84.0766983","1","2014-12-10 02:54:06","2016-07-20 00:01:29"
"185","_NA_","31","0","Kroger","_NA_","53 Exchange St","_NA_","Richmond Hill","_NA_","GA","31324","US","688","_NA_","0","1","31.956199646","-81.31999969","1","2015-04-03 19:53:45","2016-07-20 00:01:29"
"186","_NA_","31","0","Kroger","_NA_","2809 N Columbia St","_NA_","Milledgeville","_NA_","GA","31061","US","_NA_","_NA_","0","0","33.153499603","-83.27179718","1","2014-12-10 02:54:07","2016-07-20 00:01:29"
"187","_NA_","31","0","Kroger","_NA_","3094 Watson Blvd","_NA_","Warner Robins","_NA_","GA","31093","US","_NA_","_NA_","0","0","32.61869812","-83.69550323","1","2014-12-10 02:54:07","2016-07-20 00:01:29"
"188","_NA_","31","0","Kroger","_NA_","318 Mall Blvd., Suite #10","_NA_","Savannah","_NA_","GA","31406","US","","_NA_","0","1","32.005199432","-81.11250305","1","2016-04-08 19:32:08","2016-07-20 00:01:29"
"189","_NA_","31","0","Kroger","_NA_","3240 South Cobb Drive","_NA_","Smyrna","_NA_","GA","30080","US","","_NA_","0","1","33.875701904","-84.53140259","1","2016-03-24 19:45:34","2016-07-20 00:01:29"
"190","_NA_","31","0","Kroger","_NA_","318 Mall Blvd","_NA_","Savannah","_NA_","GA","31406","US","_NA_","_NA_","0","0","32.005298615","-81.11190033","1","2014-12-10 02:54:08","2016-07-20 00:01:29"
"191","_NA_","31","0","Kroger","_NA_","1900 E Victory Dr, Suite","_NA_","Savannah","_NA_","GA","31404","US","_NA_","_NA_","0","0","32.04529953","-81.06790161","1","2014-12-10 02:54:08","2016-07-20 00:01:29"
"192","_NA_","31","0","Kroger","_NA_","1241 Warwood Ave","_NA_","Wheeling","_NA_","WV","26003","US","_NA_","_NA_","0","0","40.114200592","-80.6996994","1","2014-12-10 02:54:10","2016-07-20 00:01:29"
"193","_NA_","31","0","Kroger","_NA_","3558 Main St","_NA_","Weirton","_NA_","WV","26062","US","_NA_","_NA_","0","0","40.39899826","-80.5904007","1","2014-12-10 02:54:10","2016-07-20 00:01:29"
"194","_NA_","31","0","Kroger","_NA_","6962 E Main St","_NA_","Reynoldsburg","_NA_","OH","43068","US","_NA_","_NA_","0","0","39.956401825","-82.8105011","1","2014-12-10 02:54:10","2016-07-20 00:01:29"
"195","_NA_","31","0","Kroger","_NA_","2913 Olentangy River Rd","_NA_","Columbus","_NA_","OH","43202","US","221","_NA_","0","1","40.019599915","-83.02629852","1","2016-01-18 16:51:24","2016-07-20 00:01:29"
"196","_NA_","31","0","Kroger","_NA_","240 W Main St","_NA_","Mcconnelsville","_NA_","OH","43756","US","_NA_","_NA_","0","0","39.648601532","-81.85620117","1","2014-12-10 02:54:11","2016-07-20 00:01:29"
"197","_NA_","31","0","Kroger","_NA_","2 E A St","_NA_","Wellston","_NA_","OH","45692","US","_NA_","_NA_","0","0","39.124198914","-82.53489685","1","2014-12-10 02:54:11","2016-07-20 00:01:29"
"198","_NA_","31","0","Kroger","_NA_","91 27th St","_NA_","Wellsburg","_NA_","WV","26070","US","_NA_","_NA_","0","0","40.290599823","-80.60910034","1","2014-12-10 02:54:11","2016-07-20 00:01:29"
"199","_NA_","31","0","Kroger","_NA_","60 Worthington Mall","_NA_","Worthington","_NA_","OH","43085","US","","_NA_","0","5","40.109298706","-83.01779938","1","2016-04-19 18:31:46","2021-09-22 13:59:53"
"200","_NA_","31","0","Kroger","_NA_","211 Marshall St N","_NA_","Benwood","_NA_","WV","26031","US","_NA_","_NA_","0","0","40.028499603","-80.72869873","1","2014-12-10 02:54:12","2016-07-20 00:01:29"
"201","_NA_","31","0","Kroger","_NA_","4485 Refugee Rd","_NA_","Columbus","_NA_","OH","43232","US","299","_NA_","0","2","39.913600922","-82.87830353","1","2016-01-19 15:26:22","2016-07-20 00:01:29"
"202","_NA_","31","0","Kroger","_NA_","1165 Western Ave","_NA_","Chillicothe","_NA_","OH","45601","US","_NA_","_NA_","0","0","39.334098816","-83.01609802","1","2014-12-10 02:54:13","2016-07-20 00:01:29"
"203","_NA_","31","0","Kroger","_NA_","610 Carroll St","_NA_","New Lexington","_NA_","OH","43764","US","_NA_","_NA_","0","0","39.722000122","-82.20310211","1","2014-12-10 02:54:15","2016-07-20 00:01:29"
"204","_NA_","31","0","Kroger","_NA_","2000 E Main St","_NA_","Columbus","_NA_","OH","43205","US","315","_NA_","0","1","39.957901001","-82.94470215","1","2016-01-19 14:27:07","2016-07-20 00:01:29"
"205","_NA_","31","0","Kroger","_NA_","1996 Tiffin Ave","_NA_","Findlay","_NA_","OH","45840","US","","_NA_","0","1","41.055099487","-83.6065979","1","2014-12-10 02:54:16","2020-10-27 19:47:05"
"206","_NA_","31","0","Kroger","_NA_","1955 Henderson Rd","_NA_","Upper Arlington","_NA_","OH","43220","US","328","_NA_","0","5","40.054199219","-83.07219696","1","2016-04-19 19:37:35","2021-09-22 11:25:32"
"207","_NA_","31","0","Kroger","_NA_","2474 Stringtown Rd","_NA_","Grove City","_NA_","OH","43123","US","","_NA_","0","11","39.882801056","-83.0684967","1","2016-01-19 17:36:28","2021-01-12 16:50:16"
"208","_NA_","31","0","Kroger","_NA_","887 N Bridge St","_NA_","Chillicothe","_NA_","OH","45601","US","_NA_","_NA_","0","0","39.354698181","-82.97429657","1","2014-12-10 02:54:17","2016-07-20 00:01:29"
"209","_NA_","31","0","Kroger","_NA_","299 W Bridge St","_NA_","Dublin","_NA_","OH","43017","US","","_NA_","0","4","40.097801208","-83.12229919","1","2016-07-13 20:47:52","2021-09-23 13:52:11"
"210","_NA_","31","0","Kroger","_NA_","220 Waverly Plaza","_NA_","Waverly","_NA_","OH","45690","US","_NA_","_NA_","0","0","39.133300781","-82.97679901","1","2014-12-10 02:54:17","2016-07-20 00:01:29"
"211","_NA_","31","0","Kroger","_NA_","400 Aetna St","_NA_","Martins Ferry","_NA_","OH","43935","US","_NA_","_NA_","0","0","40.086799622","-80.73300171","1","2014-12-10 02:54:18","2016-07-20 00:01:29"
"212","_NA_","31","0","Kroger","_NA_","230 Lafayette St","_NA_","London","_NA_","OH","43140","US","_NA_","_NA_","0","0","39.897201538","-83.43579865","1","2014-12-10 02:54:19","2016-07-20 00:01:29"
"213","_NA_","31","0","Kroger","_NA_","1095 W 5th St","_NA_","Marysville","_NA_","OH","43040","US","549","_NA_","0","1","40.238399506","-83.3864975","1","2014-12-10 02:54:19","2017-02-07 11:49:42"
"214","_NA_","31","0","Kroger","_NA_","134 S 5th St","_NA_","Fremont","_NA_","OH","43420","US","_NA_","_NA_","0","0","41.343898773","-83.10610199","1","2014-12-10 02:54:20","2016-07-20 00:01:29"
"215","_NA_","31","0","Kroger","_NA_","1415 S Byrne Rd","_NA_","Toledo","_NA_","OH","43614","US","","_NA_","0","1","41.613800049","-83.62180328","1","2015-11-18 16:10:27","2016-07-20 00:01:29"
"216","_NA_","31","0","Kroger","_NA_","850 S Mccord Rd","_NA_","Holland","_NA_","OH","43528","US","_NA_","_NA_","0","0","41.625900269","-83.70410156","1","2014-12-10 02:54:20","2016-07-20 00:01:29"
"217","_NA_","31","0","Kroger","_NA_","113 E Airport Hwy","_NA_","Swanton","_NA_","OH","43558","US","_NA_","_NA_","0","0","41.582298279","-83.88569641","1","2014-12-10 02:54:20","2016-07-20 00:01:29"
"218","_NA_","31","0","Kroger","_NA_","1316 Oak Harbor Rd","_NA_","Fremont","_NA_","OH","43420","US","_NA_","_NA_","0","0","41.361099243","-83.13829803","1","2014-12-10 02:54:21","2016-07-20 00:01:29"
"219","_NA_","31","0","Kroger","_NA_","210 E Mary St","_NA_","Bucyrus","_NA_","OH","44820","US","_NA_","_NA_","0","0","40.81129837","-82.97319794","1","2014-12-10 02:54:21","2016-07-20 00:01:29"
"220","_NA_","31","0","Kroger","_NA_","101 6th St","_NA_","Findlay","_NA_","OH","45840","US","","_NA_","0","2","41.021999359","-83.6486969","1","2014-12-10 02:54:21","2020-10-28 12:57:12"
"221","_NA_","31","0","Kroger","_NA_","4925 Jackman Rd","_NA_","Toledo","_NA_","OH","43613","US","","_NA_","0","1","41.704200745","-83.58989716","1","2015-11-19 17:55:04","2016-07-20 00:01:29"
"222","_NA_","31","0","Kroger","_NA_","264 S Hollywood Blvd","_NA_","Steubenville","_NA_","OH","43952","US","_NA_","_NA_","0","0","40.367198944","-80.64060211","1","2014-12-10 02:54:23","2016-07-20 00:01:29"
"223","_NA_","31","0","Kroger","_NA_","3588 Gender Rd","_NA_","Canal Winchester","_NA_","OH","43110","US","514","_NA_","0","2","39.908298492","-82.82260132","1","2015-05-28 18:31:59","2017-01-24 16:03:10"
"224","_NA_","31","0","Kroger","_NA_","1240 Park Ave W","_NA_","Mansfield","_NA_","OH","44906","US","","_NA_","0","3","40.761001587","-82.56099701","1","2016-06-09 17:01:34","2019-06-06 11:10:56"
"225","_NA_","31","0","Kroger","_NA_","1585 Georgesville Square","_NA_","Columbus","_NA_","OH","43228","US","519","_NA_","0","5","39.920398712","-83.12129974","1","2016-01-19 17:16:53","2021-07-27 14:51:46"
"226","_NA_","31","0","Kroger","_NA_","300 S Hamilton Rd","_NA_","Gahanna","_NA_","OH","43230","US","522","_NA_","0","2","40.011901855","-82.86470032","1","2016-01-18 20:28:31","2017-01-12 12:11:59"
"227","_NA_","31","0","Kroger","_NA_","1435 Reynolds Road","_NA_","Maumee","_NA_","OH","43537","US","","_NA_","0","1","41.582801819","-83.66500092","1","2015-11-18 15:53:01","2016-07-20 00:01:29"
"228","_NA_","31","0","Kroger","_NA_","965 Poplar St","_NA_","Nelsonville","_NA_","OH","45764","US","_NA_","_NA_","0","0","39.4518013","-82.22070312","1","2014-12-10 02:54:25","2016-07-20 00:01:29"
"229","_NA_","31","0","Kroger","_NA_","8730 Waterville Swanton R","_NA_","Waterville","_NA_","OH","43566","US","_NA_","_NA_","0","0","41.508998871","-83.75029755","1","2014-12-10 02:54:25","2016-07-20 00:01:29"
"230","_NA_","31","0","Kroger","_NA_","7833 Refugee Rd","_NA_","Pickerington","_NA_","OH","43147","US","_NA_","_NA_","0","0","39.906101227","-82.73509979","1","2014-12-10 02:54:26","2016-07-20 00:01:29"
"231","_NA_","31","0","Kroger","_NA_","1045 Hill Rd N","_NA_","Pickerington","_NA_","OH","43147","US","_NA_","_NA_","0","0","39.906700134","-82.77929688","1","2014-12-10 02:54:26","2016-07-20 00:01:29"
"232","_NA_","31","0","Kroger","_NA_","31550 Chieftain Dr","_NA_","Logan","_NA_","OH","43138","US","_NA_","_NA_","0","0","39.546298981","-82.43409729","1","2014-12-10 02:54:27","2016-07-20 00:01:29"
"233","_NA_","31","0","Kroger","_NA_","8460 E Main St","_NA_","Reynoldsburg","_NA_","OH","43068","US","_NA_","_NA_","0","0","39.957000732","-82.77330017","1","2014-12-10 02:54:28","2016-07-20 00:01:29"
"234","_NA_","31","0","Kroger","_NA_","800 W Coshocton St","_NA_","Johnstown","_NA_","OH","43031","US","","_NA_","0","1","40.147098541","-82.70760345","1","2016-01-28 18:34:12","2016-07-20 00:01:29"
"235","_NA_","31","0","Kroger","_NA_","981 E Columbus St","_NA_","Kenton","_NA_","OH","43326","US","_NA_","_NA_","0","0","40.653198242","-83.59230042","1","2014-12-10 02:54:28","2016-07-20 00:01:29"
"236","_NA_","31","0","Kroger","_NA_","1060 Ashland Rd","_NA_","Mansfield","_NA_","OH","44905","US","","_NA_","0","1","40.774898529","-82.4756012","1","2014-12-10 02:54:28","2019-06-06 11:46:02"
"237","_NA_","31","0","Kroger","_NA_","400 28th St","_NA_","Bellaire","_NA_","OH","43906","US","_NA_","_NA_","0","0","40.011600494","-80.74710083","1","2014-12-10 02:54:29","2016-07-20 00:01:29"
"238","_NA_","31","0","Kroger","_NA_","200 Mount De Chantal Rd","_NA_","Wheeling","_NA_","WV","26003","US","_NA_","_NA_","0","0","40.073699951","-80.6996994","1","2014-12-10 02:54:29","2016-07-20 00:01:29"
"239","_NA_","31","0","Kroger","_NA_","150 W Sycamore St","_NA_","Columbus","_NA_","OH","43215","US","569","_NA_","0","4","39.949699402","-83.00189972","1","2016-04-19 16:34:42","2017-01-13 10:28:54"
"240","_NA_","31","0","Kroger","_NA_","811 Gay St","_NA_","Portsmouth","_NA_","OH","45662","US","_NA_","_NA_","0","0","38.736099243","-82.99559784","1","2014-12-10 02:54:30","2016-07-20 00:01:29"
"241","_NA_","31","0","Kroger","_NA_","7625 Sawmill Rd","_NA_","Dublin","_NA_","OH","43016","US","","_NA_","0","12","40.121601105","-83.0923996","1","2016-07-13 21:16:08","2021-09-22 14:44:48"
"242","_NA_","31","0","Kroger","_NA_","1350 N High St","_NA_","Columbus","_NA_","OH","43201","US","","_NA_","0","5","39.989200592","-83.00540161","1","2016-01-27 16:32:49","2020-02-04 11:31:55"
"243","_NA_","31","0","Kroger","_NA_","530 E Main St","_NA_","Jackson","_NA_","OH","45640","US","_NA_","_NA_","0","0","39.0481987","-82.62989807","1","2014-12-10 02:54:32","2016-07-20 00:01:29"
"244","_NA_","31","0","Kroger","_NA_","350 E Broad St","_NA_","Pataskala","_NA_","OH","43062","US","_NA_","_NA_","0","0","40.006401062","-82.66400146","1","2014-12-10 02:54:32","2016-07-20 00:01:29"
"245","_NA_","31","0","Kroger","_NA_","790 W Market St","_NA_","Tiffin","_NA_","OH","44883","US","_NA_","_NA_","0","0","41.112800598","-83.20829773","1","2014-12-10 02:54:33","2016-07-20 00:01:29"
"246","_NA_","31","0","Kroger","_NA_","3600 Soldano Blvd","_NA_","Columbus","_NA_","OH","43228","US","598","_NA_","0","2","39.956798553","-83.09680176","1","2016-01-19 16:54:32","2019-01-31 14:16:01"
"247","_NA_","31","0","Kroger","_NA_","4633 Suder Ave","_NA_","Toledo","_NA_","OH","43611","US","","_NA_","0","2","41.705799103","-83.49949646","1","2016-05-25 15:19:09","2016-07-20 00:01:29"
"248","_NA_","31","0","Kroger","_NA_","600 E Main St","_NA_","Hebron","_NA_","OH","43025","US","_NA_","_NA_","0","0","39.95980072","-82.47579956","1","2014-12-10 02:54:34","2016-07-20 00:01:29"
"249","_NA_","31","0","Kroger","_NA_","5800 W Broad St","_NA_","Galloway","_NA_","OH","43119","US","","_NA_","0","6","39.951099396","-83.15609741","1","2014-12-10 02:54:34","2021-07-27 15:12:05"
"250","_NA_","31","0","Kroger","_NA_","2028 East Harbor Rd","_NA_","Port Clinton","_NA_","OH","43452","US","_NA_","_NA_","0","0","41.514499664","-82.90200043","1","2014-12-10 02:54:34","2016-07-20 00:01:29"
"251","_NA_","31","0","Kroger","_NA_","9101 OH River Rd","_NA_","Wheelersburg","_NA_","OH","45694","US","_NA_","_NA_","0","0","38.729598999","-82.86569977","1","2014-12-10 02:54:34","2016-07-20 00:01:29"
"252","_NA_","31","0","Kroger","_NA_","555 W Marion Rd","_NA_","Mount Gilead","_NA_","OH","43338","US","_NA_","_NA_","0","0","40.547599792","-82.84670258","1","2014-12-10 02:54:36","2016-07-20 00:01:29"
"253","_NA_","31","0","Kroger","_NA_","131 State Route 3","_NA_","Sunbury","_NA_","OH","43074","US","_NA_","_NA_","0","0","40.268901825","-82.938797","1","2014-12-10 02:54:36","2016-07-20 00:01:29"
"254","_NA_","31","0","Kroger","_NA_","100 Saint Thomas Dr","_NA_","Weirton","_NA_","WV","26062","US","_NA_","_NA_","0","0","40.398700714","-80.55059814","1","2014-12-10 02:54:37","2016-07-20 00:01:29"
"255","_NA_","31","0","Kroger","_NA_","801 N Houk Rd","_NA_","Delaware","_NA_","OH","43015","US","","_NA_","0","1","40.312999725","-83.11039734","1","2014-12-10 02:54:37","2017-01-23 15:08:36"
"256","_NA_","31","0","Kroger","_NA_","6417 Columbus Pike","_NA_","Lewis Center","_NA_","OH","43035","US","_NA_","_NA_","0","0","40.203201294","-83.02649689","1","2014-12-10 02:54:38","2016-07-20 00:01:29"
"257","_NA_","31","0","Kroger","_NA_","850 S Hamilton Rd","_NA_","Whitehall","_NA_","OH","43213","US","806","_NA_","0","2","39.958698273","-82.87560272","1","2016-01-19 13:38:17","2016-07-20 00:01:29"
"258","_NA_","31","0","Kroger","_NA_","1428 Marion Waldo Rd","_NA_","Marion","_NA_","OH","43302","US","_NA_","_NA_","0","0","40.563098907","-83.11730194","1","2014-12-10 02:54:38","2016-07-20 00:01:29"
"259","_NA_","31","0","Kroger","_NA_","833 W Alexis Rd","_NA_","Toledo","_NA_","OH","43612","US","810","_NA_","0","1","41.719898224","-83.56340027","1","2015-11-19 17:20:35","2016-07-20 00:01:29"
"260","_NA_","31","0","Kroger","_NA_","50789 Valley Plaza Dr","_NA_","St. Clairsville","_NA_","OH","43950","US","_NA_","_NA_","0","0","40.075199127","-80.87339783","1","2014-12-10 02:54:39","2016-07-20 00:01:29"
"261","_NA_","31","0","Kroger","_NA_","3637 S High St","_NA_","Columbus","_NA_","OH","43207","US","","_NA_","0","5","39.88809967","-83.00170135","1","2014-12-10 02:54:39","2021-01-13 11:54:38"
"262","_NA_","31","0","Kroger","_NA_","7100 Hospital Dr","_NA_","Dublin","_NA_","OH","43016","US","","_NA_","0","11","40.10269928","-83.16439819","1","2016-07-13 19:28:38","2021-09-23 14:14:01"
"263","_NA_","31","0","Kroger","_NA_","2090 Crown Plaza Dr.","_NA_","Columbus","_NA_","OH","43235","US","","_NA_","0","8","40.065299988","-83.07409668","1","2016-01-18 17:50:32","2021-09-22 11:49:41"
"264","_NA_","31","0","Kroger","_NA_","199 Graceland Blvd","_NA_","Columbus","_NA_","OH","43214","US","690","_NA_","0","8","40.065101624","-83.02559662","1","2016-01-18 18:19:40","2021-09-22 13:04:50"
"265","_NA_","31","0","Kroger","_NA_","855 Coshocton Ave","_NA_","Mount Vernon","_NA_","OH","43050","US","_NA_","_NA_","0","0","40.399398804","-82.46019745","1","2014-12-10 02:54:41","2016-07-20 00:01:29"
"266","_NA_","31","0","Kroger","_NA_","548 Clinton Ave","_NA_","WA Court Hou","_NA_","OH","43160","US","_NA_","_NA_","0","0","46.634498596","-123.0970001","1","2014-12-10 02:54:42","2016-07-20 00:01:29"
"267","_NA_","31","0","Kroger","_NA_","1637 E Us Highway 36","_NA_","Urbana","_NA_","OH","43078","US","_NA_","_NA_","0","0","40.103500366","-83.7201004","1","2014-12-10 02:54:42","2016-07-20 00:01:29"
"268","_NA_","31","0","Kroger","_NA_","19471 Lake Drive","_NA_","Trimble","_NA_","OH","45782","US","_NA_","_NA_","0","0","39.483600616","-82.07980347","1","2014-12-10 02:54:43","2016-07-20 00:01:29"
"269","_NA_","31","0","Kroger","_NA_","2129 S Main St","_NA_","Bellefontaine","_NA_","OH","43311","US","_NA_","_NA_","0","0","40.331199646","-83.75959778","1","2014-12-10 02:54:43","2016-07-20 00:01:29"
"270","_NA_","31","0","Kroger","_NA_","1500 Lexington Ave","_NA_","Mansfield","_NA_","OH","44907","US","","_NA_","0","3","40.720100403","-82.54769897","1","2014-12-10 02:54:43","2019-06-06 12:20:02"
"271","_NA_","31","0","Kroger","_NA_","1177 Polaris Pkwy","_NA_","Columbus","_NA_","OH","43240","US","","_NA_","0","7","40.140098572","-82.98999786","1","2014-12-10 02:54:43","2021-09-23 11:39:25"
"272","_NA_","31","0","Kroger","_NA_","5965 Hoover Rd","_NA_","Grove City","_NA_","OH","43123","US","842","_NA_","0","9","39.841201782","-83.07510376","1","2016-01-19 17:57:04","2021-01-12 17:30:52"
"273","_NA_","31","0","Kroger","_NA_","175 Lancaster Pike","_NA_","Circleville","_NA_","OH","43113","US","_NA_","_NA_","0","0","39.597999573","-82.93119812","1","2014-12-10 02:54:45","2016-07-20 00:01:29"
"274","_NA_","31","0","Kroger","_NA_","7345 S.r. 3","_NA_","Westerville","_NA_","OH","43082","US","","_NA_","0","3","40.148601532","-82.92009735","1","2014-12-10 02:54:45","2019-06-05 15:20:19"
"275","_NA_","31","0","Kroger","_NA_","6095 Gender Rd","_NA_","Canal Winchester","_NA_","OH","43110","US","_NA_","_NA_","0","0","39.855701447","-82.83190155","1","2014-12-10 02:54:46","2016-07-20 00:01:29"
"276","_NA_","31","0","Kroger","_NA_","7000 E Broad St","_NA_","Columbus","_NA_","OH","43213","US","853","_NA_","0","3","39.984500885","-82.81620026","1","2016-01-19 13:17:36","2017-01-24 16:51:29"
"277","_NA_","31","0","Kroger","_NA_","126 W High St","_NA_","Fostoria","_NA_","OH","44830","US","_NA_","_NA_","0","0","41.163398743","-83.41549683","1","2014-12-10 02:54:46","2016-07-20 00:01:29"
"278","_NA_","31","0","Kroger","_NA_","1840 Columbus Pike","_NA_","Delaware","_NA_","OH","43015","US","","_NA_","0","1","40.264598846","-83.07089996","1","2014-12-10 02:54:47","2017-01-23 14:39:21"
"279","_NA_","31","0","Kroger","_NA_","6011 Groveport Rd","_NA_","Groveport","_NA_","OH","43125","US","861","_NA_","0","3","39.853099823","-82.89929962","1","2016-01-19 16:13:42","2017-01-24 15:01:30"
"280","_NA_","31","0","Kroger","_NA_","3462 Sterns Rd","_NA_","Lambertville","_NA_","MI","48144","US","_NA_","_NA_","0","0","41.750999451","-83.62819672","1","2014-12-10 02:54:48","2016-07-20 00:01:29"
"281","_NA_","31","0","Kroger","_NA_","2525 Hilliard Rome Rd","_NA_","Hilliard","_NA_","OH","43026","US","867","_NA_","0","5","40.00220108","-83.15579987","1","2016-01-18 15:22:58","2021-07-27 15:33:03"
"282","_NA_","31","0","Kroger","_NA_","2257 N Holland Sylvania R","_NA_","Toledo","_NA_","OH","43615","US","_NA_","_NA_","0","0","41.662601471","-83.68430328","1","2014-12-10 02:54:50","2016-07-20 00:01:29"
"283","_NA_","31","0","Kroger","_NA_","1365 Stoneridge Dr","_NA_","Gahanna","_NA_","OH","43230","US","871","_NA_","0","4","40.054100037","-82.86750031","1","2016-01-18 20:05:13","2021-09-23 11:01:32"
"284","_NA_","31","0","Kroger","_NA_","1094 N Main St","_NA_","Bowling Green","_NA_","OH","43402","US","_NA_","_NA_","0","0","41.391601562","-83.64910126","1","2014-12-10 02:54:51","2016-07-20 00:01:29"
"285","_NA_","31","0","Kroger","_NA_","1425 Worthington Centre D","_NA_","Worthington","_NA_","OH","43085","US","","_NA_","0","3","40.123401642","-82.98010254","1","2014-12-10 02:54:51","2021-01-14 13:08:53"
"286","_NA_","31","0","Kroger","_NA_","1608 Marion Mount Gilead","_NA_","Marion","_NA_","OH","43302","US","_NA_","_NA_","0","0","40.583301544","-83.0861969","1","2014-12-10 02:54:51","2016-07-20 00:01:29"
"287","_NA_","31","0","Kroger","_NA_","5161 Hampsted Village Cen","_NA_","New Albany","_NA_","OH","43054","US","881","_NA_","0","3","40.08890152","-82.82579803","1","2016-01-28 19:01:46","2017-01-12 13:42:33"
"288","_NA_","31","0","Kroger","_NA_","3387 Maple Ave","_NA_","Zanesville","_NA_","OH","43701","US","_NA_","_NA_","0","0","39.982498169","-82.02179718","1","2014-12-10 02:54:52","2016-07-20 00:01:29"
"289","_NA_","31","0","Kroger","_NA_","1441 Parsons Ave","_NA_","Columbus","_NA_","OH","43207","US","","_NA_","0","2","39.934299469","-82.98390198","1","2016-01-19 15:07:12","2017-05-03 14:38:03"
"290","_NA_","31","0","Kroger","_NA_","7545 Sylvania Ave","_NA_","Sylvania","_NA_","OH","43560","US","","_NA_","0","2","41.686698914","-83.72429657","1","2015-12-16 20:45:40","2016-07-26 18:28:01"
"291","_NA_","31","0","Kroger","_NA_","3675 E Broad St","_NA_","Whitehall","_NA_","OH","43213","US","897","_NA_","0","1","39.971801758","-82.90319824","1","2016-01-19 14:05:14","2016-07-20 00:01:29"
"292","_NA_","31","0","Kroger","_NA_","3975 Powell Rd","_NA_","Powell","_NA_","OH","43065","US","","_NA_","0","7","40.156898499","-83.09539795","1","2014-12-10 02:54:54","2021-09-23 12:46:38"
"293","_NA_","31","0","Kroger","_NA_","919 E State St","_NA_","Athens","_NA_","OH","45701","US","_NA_","_NA_","0","0","39.337001801","-82.07039642","1","2014-12-10 02:54:55","2016-07-20 00:01:29"
"294","_NA_","31","0","Kroger","_NA_","55 W Schrock Rd","_NA_","Westerville","_NA_","OH","43081","US","","_NA_","0","3","40.108200073","-82.92739868","1","2015-04-30 14:48:02","2018-02-23 11:35:47"
"295","_NA_","31","0","Kroger","_NA_","1735 N Memorial Dr","_NA_","Lancaster","_NA_","OH","43130","US","_NA_","_NA_","0","0","39.729698181","-82.61689758","1","2014-12-10 02:54:55","2016-07-20 00:01:29"
"296","_NA_","31","0","Kroger","_NA_","245 Deo Dr","_NA_","Newark","_NA_","OH","43055","US","_NA_","_NA_","0","0","40.084899902","-82.42359924","1","2014-12-10 02:54:56","2016-07-20 00:01:29"
"297","_NA_","31","0","Kroger","_NA_","910 Hebron Rd","_NA_","Heath","_NA_","OH","43056","US","_NA_","_NA_","0","0","40.025798798","-82.44509888","1","2014-12-10 02:54:56","2016-07-20 00:01:29"
"298","_NA_","31","0","Kroger","_NA_","1141 E Main St","_NA_","Lancaster","_NA_","OH","43130","US","_NA_","_NA_","0","0","39.716201782","-82.57929993","1","2014-12-10 02:54:56","2016-07-20 00:01:29"
"299","_NA_","31","0","Kroger","_NA_","5109 Glendale Ave","_NA_","Toledo","_NA_","OH","43614","US","_NA_","_NA_","0","0","41.603199005","-83.66269684","1","2014-12-10 02:54:56","2016-07-20 00:01:29"
"300","_NA_","31","0","Kroger","_NA_","3301 Navarre Ave","_NA_","Oregon","_NA_","OH","43616","US","_NA_","_NA_","0","0","41.638301849","-83.46970367","1","2014-12-10 02:54:57","2016-07-20 00:01:29"
"301","_NA_","31","0","Kroger","_NA_","27386 Carronade Dr","_NA_","Perrysburg","_NA_","OH","43551","US","","_NA_","0","1","41.545501709","-83.59799957","1","2016-05-25 16:02:39","2016-07-20 00:01:29"
"302","_NA_","31","0","Kroger","_NA_","6235 Monroe St","_NA_","Sylvania","_NA_","OH","43560","US","","_NA_","0","1","41.714698792","-83.69249725","1","2014-12-10 02:54:59","2016-07-26 13:35:27"
"303","_NA_","31","0","Kroger","_NA_","3353 Cleveland Ave","_NA_","Columbus","_NA_","OH","43224","US","941","_NA_","0","2","40.035999298","-82.96499634","1","2016-01-18 19:36:56","2017-01-12 15:02:51"
"304","_NA_","31","0","Kroger","_NA_","1375 Chambers Rd","_NA_","Columbus","_NA_","OH","43212","US","","_NA_","0","7","39.992599487","-83.04319763","1","2016-04-19 15:54:31","2021-09-23 09:45:30"
"305","_NA_","31","0","Kroger","_NA_","1414 Spring Meadows Dr","_NA_","Holland","_NA_","OH","43528","US","_NA_","_NA_","0","0","41.615100861","-83.69809723","1","2014-12-10 02:55:00","2016-07-20 00:01:29"
"306","_NA_","31","0","Kroger","_NA_","4533 Monroe St","_NA_","Toledo","_NA_","OH","43613","US","_NA_","_NA_","0","0","41.687301636","-83.62139893","1","2014-12-10 02:55:00","2016-07-20 00:01:29"
"307","_NA_","31","0","Kroger","_NA_","858 Main St","_NA_","Wintersville","_NA_","OH","43953","US","_NA_","_NA_","0","0","40.374401093","-80.70339966","1","2014-12-10 02:55:00","2016-07-20 00:01:29"
"308","_NA_","31","0","Kroger","_NA_","5991 S Sunbury Rd","_NA_","Westerville","_NA_","OH","43081","US","965","_NA_","0","2","40.084400177","-82.896698","1","2015-04-30 15:12:58","2017-01-12 14:36:37"
"309","_NA_","31","0","Kroger","_NA_","4656 Cemetery Rd","_NA_","Hilliard","_NA_","OH","43026","US","966","_NA_","0","5","40.033401489","-83.14060211","1","2016-01-18 15:39:38","2021-07-27 16:10:50"
"310","_NA_","31","0","Kroger","_NA_","3417 N High St","_NA_","Columbus","_NA_","OH","43214","US","","_NA_","0","6","40.032001495","-83.01760101","1","2016-04-20 14:27:26","2019-02-01 11:24:47"
"311","_NA_","31","0","Kroger","_NA_","1212 Lafayette Ave","_NA_","Moundsville","_NA_","WV","26041","US","_NA_","_NA_","0","0","39.912799835","-80.74649811","1","2014-12-10 02:55:02","2016-07-20 00:01:29"
"312","_NA_","31","0","Kroger","_NA_","1920 Woodville Rd","_NA_","Oregon","_NA_","OH","43616","US","_NA_","_NA_","0","0","41.626300812","-83.50330353","1","2014-12-10 02:55:03","2016-07-20 00:01:29"
"313","_NA_","31","0","Kroger","_NA_","2555 Glendale Ave","_NA_","Toledo","_NA_","OH","43614","US","","_NA_","0","1","41.611400604","-83.60639954","1","2015-11-18 16:23:25","2016-07-20 00:01:29"
"314","_NA_","31","0","Kroger","_NA_","508 W Perkins Ave","_NA_","Sandusky","_NA_","OH","44870","US","_NA_","_NA_","0","0","41.431598663","-82.70700073","1","2014-12-10 02:55:04","2016-07-20 00:01:29"
"315","_NA_","31","0","Kroger","_NA_","1630 Morse Rd","_NA_","Columbus","_NA_","OH","43229","US","","_NA_","0","3","40.062000275","-82.97519684","1","2016-01-18 19:14:24","2017-01-12 11:04:25"
"316","_NA_","31","0","Kroger","_NA_","2161 Eakin Rd","_NA_","Columbus","_NA_","OH","43223","US","990","_NA_","0","5","39.931400299","-83.05220032","1","2016-01-19 16:33:25","2021-01-13 12:29:56"
"317","_NA_","31","0","Kroger","_NA_","1916 Davison Rd","_NA_","Flint","_NA_","MI","48506","US","_NA_","_NA_","0","0","43.032299042","-83.66480255","1","2014-12-10 02:55:05","2016-07-20 00:01:29"
"318","_NA_","31","0","Kroger","_NA_","3838 Richfield Rd","_NA_","Flint","_NA_","MI","48506","US","_NA_","_NA_","0","0","43.049800873","-83.63659668","1","2014-12-10 02:55:05","2016-07-20 00:01:29"
"319","_NA_","31","0","Kroger","_NA_","3021 E MI Ave","_NA_","Jackson","_NA_","MI","49202","US","_NA_","_NA_","0","0","42.178798676","-84.65149689","1","2014-12-10 02:55:05","2016-07-20 00:01:29"
"320","_NA_","31","0","Kroger","_NA_","2808 Ashman St","_NA_","Midland","_NA_","MI","48640","US","_NA_","_NA_","0","0","43.624500275","-84.228302","1","2014-12-10 02:55:06","2016-07-20 00:01:29"
"321","_NA_","31","0","Kroger","_NA_","3288 Corunna Rd","_NA_","Flint","_NA_","MI","48532","US","_NA_","_NA_","0","0","43.002799988","-83.74440002","1","2014-12-10 02:55:06","2016-07-20 00:01:29"
"322","_NA_","31","0","Kroger","_NA_","1200 E Bristol Rd","_NA_","Burton","_NA_","MI","48529","US","_NA_","_NA_","0","0","42.973098755","-83.68650055","1","2014-12-10 02:55:08","2016-07-20 00:01:29"
"323","_NA_","31","0","Kroger","_NA_","7188 N Saginaw Rd","_NA_","Mount Morris","_NA_","MI","48458","US","_NA_","_NA_","0","0","43.110298157","-83.69259644","1","2014-12-10 02:55:08","2016-07-20 00:01:29"
"324","_NA_","31","0","Kroger","_NA_","2629 W Pierson Rd","_NA_","Flint","_NA_","MI","48504","US","_NA_","_NA_","0","0","43.059299469","-83.73680115","1","2014-12-10 02:55:08","2016-07-20 00:01:29"
"325","_NA_","31","0","Kroger","_NA_","12731 S Saginaw St","_NA_","Grand Blanc","_NA_","MI","48439","US","_NA_","_NA_","0","0","42.920101166","-83.61889648","1","2014-12-10 02:55:08","2016-07-20 00:01:29"
"326","_NA_","31","0","Kroger","_NA_","3860 Dixie Hwy","_NA_","Saginaw","_NA_","MI","48601","US","_NA_","_NA_","0","0","43.396701813","-83.91239929","1","2014-12-10 02:55:09","2016-07-20 00:01:29"
"327","_NA_","31","0","Kroger","_NA_","5025 Gratiot Rd","_NA_","Saginaw","_NA_","MI","48638","US","_NA_","_NA_","0","0","43.413799286","-84.01560211","1","2014-12-10 02:55:09","2016-07-20 00:01:29"
"328","_NA_","31","0","Kroger","_NA_","5249 Corunna Rd","_NA_","Flint","_NA_","MI","48532","US","_NA_","_NA_","0","0","43.000499725","-83.78220367","1","2014-12-10 02:55:09","2016-07-20 00:01:29"
"329","_NA_","31","0","Kroger","_NA_","8999 Macomb St","_NA_","Grosse Ile","_NA_","MI","48138","US","_NA_","_NA_","0","0","42.130699158","-83.15899658","1","2014-12-10 02:55:10","2016-07-20 00:01:29"
"330","_NA_","31","0","Kroger","_NA_","1542 E Pierson Rd","_NA_","Flushing","_NA_","MI","48433","US","_NA_","_NA_","0","0","43.059101105","-83.81549835","1","2014-12-10 02:55:10","2016-07-20 00:01:29"
"331","_NA_","31","0","Kroger","_NA_","945 N Euclid Ave","_NA_","Bay City","_NA_","MI","48706","US","_NA_","_NA_","0","0","43.614498138","-83.91639709","1","2014-12-10 02:55:11","2016-07-20 00:01:29"
"332","_NA_","31","0","Kroger","_NA_","5186 Fenton Rd","_NA_","Flint","_NA_","MI","48507","US","_NA_","_NA_","0","0","42.954498291","-83.69319916","1","2014-12-10 02:55:12","2016-07-20 00:01:29"
"333","_NA_","31","0","Kroger","_NA_","435 N Main St","_NA_","Frankenmuth","_NA_","MI","48734","US","_NA_","_NA_","0","0","43.340198517","-83.73639679","1","2014-12-10 02:55:12","2016-07-20 00:01:29"
"334","_NA_","31","0","Kroger","_NA_","6370 Dixie Hwy","_NA_","Bridgeport","_NA_","MI","48722","US","_NA_","_NA_","0","0","43.353000641","-83.87110138","1","2014-12-10 02:55:12","2016-07-20 00:01:29"
"335","_NA_","31","0","Kroger","_NA_","3600 W Maple Rd","_NA_","Bloomfield Hills","_NA_","MI","48301","US","_NA_","_NA_","0","0","42.546199799","-83.26239777","1","2014-12-10 02:55:13","2016-07-20 00:01:29"
"336","_NA_","31","0","Kroger","_NA_","26400 Ford Rd","_NA_","Dearborn Heights","_NA_","MI","48127","US","_NA_","_NA_","0","0","42.3268013","-83.29910278","1","2014-12-10 02:55:13","2016-07-20 00:01:29"
"337","_NA_","31","0","Kroger","_NA_","17447 Haggerty Rd","_NA_","Northville","_NA_","MI","48168","US","","_NA_","0","3","42.413299561","-83.43560028","1","2016-03-17 17:38:32","2016-07-20 00:01:29"
"338","_NA_","31","0","Kroger","_NA_","15255 MI Ave","_NA_","Dearborn","_NA_","MI","48126","US","_NA_","_NA_","0","0","42.294200897","-83.20339966","1","2014-12-10 02:55:14","2016-07-20 00:01:29"
"339","_NA_","31","0","Kroger","_NA_","10059 E Highland Rd","_NA_","Howell","_NA_","MI","48843","US","_NA_","_NA_","0","0","42.634998322","-83.75440216","1","2014-12-10 02:55:14","2016-07-20 00:01:29"
"340","_NA_","31","0","Kroger","_NA_","22332 E 9 Mile Rd","_NA_","Saint Clair Shores","_NA_","MI","48080","US","_NA_","_NA_","0","0","42.46559906","-82.89550018","1","2014-12-10 02:55:15","2016-07-20 00:01:29"
"341","_NA_","31","0","Kroger","_NA_","23101 John R Rd","_NA_","Hazel Park","_NA_","MI","48030","US","","_NA_","0","1","42.46269989","-83.10559845","1","2016-05-23 18:28:11","2016-07-20 00:01:29"
"342","_NA_","31","0","Kroger","_NA_","1237 Coolidge Hwy","_NA_","Troy","_NA_","MI","48084","US","_NA_","_NA_","0","0","42.54240036","-83.18979645","1","2014-12-10 02:55:16","2016-07-20 00:01:29"
"343","_NA_","31","0","Kroger","_NA_","43893 Schoenherr Rd","_NA_","Sterling Heights","_NA_","MI","48313","US","_NA_","_NA_","0","0","42.617500305","-82.99449921","1","2014-12-10 02:55:17","2016-07-20 00:01:29"
"344","_NA_","31","0","Kroger","_NA_","2600 Pointe Tremble Rd","_NA_","Algonac","_NA_","MI","48001","US","_NA_","_NA_","0","0","42.617801666","-82.54859924","1","2014-12-10 02:55:17","2016-07-20 00:01:29"
"345","_NA_","31","0","Kroger","_NA_","23000 MI Ave","_NA_","Dearborn","_NA_","MI","48124","US","_NA_","_NA_","0","0","42.294898987","-83.20339966","1","2014-12-10 02:55:18","2016-07-20 00:01:29"
"346","_NA_","31","0","Kroger","_NA_","20422 Mack Ave","_NA_","Grosse Pointe Woods","_NA_","MI","48236","US","_NA_","_NA_","0","0","42.439098358","-82.90699768","1","2014-12-10 02:55:18","2016-07-20 00:01:29"
"347","_NA_","31","0","Kroger","_NA_","30851 Gratiot Ave","_NA_","Roseville","_NA_","MI","48066","US","_NA_","_NA_","0","0","42.523899078","-82.92299652","1","2014-12-10 02:55:18","2016-07-20 00:01:29"
"348","_NA_","31","0","Kroger","_NA_","200 S Merriman Rd","_NA_","Westland","_NA_","MI","48186","US","","_NA_","0","1","42.309398651","-83.35220337","1","2015-11-19 14:52:01","2016-07-20 00:01:29"
"349","_NA_","31","0","Kroger","_NA_","23849 West Rd","_NA_","Brownstown","_NA_","MI","48134","US","","_NA_","0","1","42.136501312","-83.26460266","1","2015-11-19 16:01:09","2016-07-20 00:01:29"
"350","_NA_","31","0","Kroger","_NA_","7350 N Middlebelt Rd","_NA_","Westland","_NA_","MI","48185","US","459","_NA_","0","1","42.341701508","-83.33070374","1","2015-11-19 14:28:22","2016-07-20 00:01:29"
"351","_NA_","31","0","Kroger","_NA_","64660 Van Dyke Rd","_NA_","WA","_NA_","MI","48095","US","_NA_","_NA_","0","0","42.779399872","-83.04689789","1","2014-12-10 02:55:19","2016-07-20 00:01:29"
"352","_NA_","31","0","Kroger","_NA_","3125 John R Rd","_NA_","Troy","_NA_","MI","48083","US","_NA_","_NA_","0","0","42.565299988","-83.11000061","1","2014-12-10 02:55:21","2016-07-20 00:01:29"
"353","_NA_","31","0","Kroger","_NA_","2105 South Blvd W","_NA_","Troy","_NA_","MI","48098","US","_NA_","_NA_","0","0","42.620998383","-83.17199707","1","2014-12-10 02:55:21","2016-07-20 00:01:29"
"354","_NA_","31","0","Kroger","_NA_","1821 S Cedar St","_NA_","Imlay City","_NA_","MI","48444","US","_NA_","_NA_","0","0","43.011901855","-83.06970215","1","2014-12-10 02:55:21","2016-07-20 00:01:29"
"355","_NA_","31","0","Kroger","_NA_","4395 Orchard Lake Rd","_NA_","Orchard Lake","_NA_","MI","48323","US","_NA_","_NA_","0","0","42.574001312","-83.36070251","1","2014-12-10 02:55:22","2016-07-20 00:01:29"
"356","_NA_","31","0","Kroger","_NA_","26233 Hoover Rd","_NA_","Warren","_NA_","MI","48089","US","_NA_","_NA_","0","0","42.486598969","-83.00769806","1","2014-12-10 02:55:22","2016-07-20 00:01:29"
"357","_NA_","31","0","Kroger","_NA_","31 E Long Lake Rd","_NA_","Troy","_NA_","MI","48098","US","_NA_","_NA_","0","0","42.591701508","-83.15010071","1","2014-12-10 02:55:22","2016-07-20 00:01:29"
"358","_NA_","31","0","Kroger","_NA_","65 S Livernois Rd","_NA_","Rochester Hills","_NA_","MI","48307","US","_NA_","_NA_","0","0","42.680400848","-83.15149689","1","2014-12-10 02:55:23","2016-07-20 00:01:29"
"359","_NA_","31","0","Kroger","_NA_","19001 West Rd","_NA_","Woodhaven","_NA_","MI","48183","US","_NA_","_NA_","0","0","42.140800476","-83.22190094","1","2014-12-10 02:55:23","2016-07-20 00:01:29"
"360","_NA_","31","0","Kroger","_NA_","23191 Marter Rd","_NA_","Saint Clair Shores","_NA_","MI","48080","US","","_NA_","0","1","42.460201263","-82.88349915","1","2016-05-23 19:14:01","2016-07-20 00:01:29"
"361","_NA_","31","0","Kroger","_NA_","2907 Krafft Rd","_NA_","Port Huron","_NA_","MI","48060","US","_NA_","_NA_","0","0","43.024600983","-82.45420074","1","2014-12-10 02:55:24","2016-07-20 00:01:29"
"362","_NA_","31","0","Kroger","_NA_","1771 E MI Ave","_NA_","Ypsilanti","_NA_","MI","48198","US","_NA_","_NA_","0","0","42.239898682","-83.62200165","1","2014-12-10 02:55:25","2016-07-20 00:01:29"
"363","_NA_","31","0","Kroger","_NA_","670 Highland Ave","_NA_","Milford","_NA_","MI","48381","US","_NA_","_NA_","0","0","42.593898773","-83.60420227","1","2014-12-10 02:55:25","2016-07-20 00:01:29"
"364","_NA_","31","0","Kroger","_NA_","41941 Garfield Rd","_NA_","Clinton Township","_NA_","MI","48038","US","_NA_","_NA_","0","0","42.604999542","-82.95480347","1","2014-12-10 02:55:26","2016-07-20 00:01:29"
"365","_NA_","31","0","Kroger","_NA_","36111 E MI Ave","_NA_","Wayne","_NA_","MI","48184","US","_NA_","_NA_","0","0","42.437698364","-83.3934021","1","2014-12-10 02:55:26","2016-07-20 00:01:29"
"366","_NA_","31","0","Kroger","_NA_","531 W Main St","_NA_","Milan","_NA_","MI","48160","US","_NA_","_NA_","0","0","42.08890152","-83.69760132","1","2014-12-10 02:55:27","2016-07-20 00:01:29"
"367","_NA_","31","0","Kroger","_NA_","571 E Monroe St","_NA_","Dundee","_NA_","MI","48131","US","_NA_","_NA_","0","0","41.953399658","-83.64150238","1","2014-12-10 02:55:27","2016-07-20 00:01:29"
"368","_NA_","31","0","Kroger","_NA_","850 S Monroe St","_NA_","Monroe","_NA_","MI","48161","US","","_NA_","0","2","41.908798218","-83.40599823","1","2016-05-25 14:39:27","2016-07-20 00:01:29"
"369","_NA_","31","0","Kroger","_NA_","3833 N Dixie Hwy","_NA_","Monroe","_NA_","MI","48162","US","","_NA_","0","1","41.948001862","-83.31289673","1","2016-05-25 14:05:31","2016-07-20 00:01:29"
"370","_NA_","31","0","Kroger","_NA_","540 S Main St","_NA_","Lapeer","_NA_","MI","48446","US","_NA_","_NA_","0","0","43.044300079","-83.32309723","1","2014-12-10 02:55:28","2016-07-20 00:01:29"
"371","_NA_","31","0","Kroger","_NA_","28250 Dequindre Rd","_NA_","Warren","_NA_","MI","48092","US","_NA_","_NA_","0","0","42.499500275","-83.08309937","1","2014-12-10 02:55:28","2016-07-20 00:01:29"
"372","_NA_","31","0","Kroger","_NA_","2641 Plymouth Rd","_NA_","Ann Arbor","_NA_","MI","48105","US","_NA_","_NA_","0","0","42.304599762","-83.70899963","1","2014-12-10 02:55:29","2016-07-20 00:01:29"
"373","_NA_","31","0","Kroger","_NA_","3843 15 Mile Rd","_NA_","Sterling Heights","_NA_","MI","48310","US","_NA_","_NA_","0","0","42.550701141","-83.07209778","1","2014-12-10 02:55:30","2016-07-20 00:01:29"
"374","_NA_","31","0","Kroger","_NA_","31145 Harper Ave","_NA_","Saint Clair Shores","_NA_","MI","48082","US","_NA_","_NA_","0","0","42.524501801","-82.90019989","1","2014-12-10 02:55:30","2016-07-20 00:01:29"
"375","_NA_","31","0","Kroger","_NA_","33523 8 Mile Rd","_NA_","Livonia","_NA_","MI","48152","US","_NA_","_NA_","0","0","42.439399719","-83.38189697","1","2014-12-10 02:55:30","2016-07-20 00:01:29"
"376","_NA_","31","0","Kroger","_NA_","30935 5 Mile Rd","_NA_","Livonia","_NA_","MI","48154","US","","_NA_","0","1","42.396701813","-83.34880066","1","2015-11-18 20:06:36","2016-07-20 00:01:29"
"377","_NA_","31","0","Kroger","_NA_","37550 W 12 Mile Rd","_NA_","Farmington Hills","_NA_","MI","48331","US","_NA_","_NA_","0","0","42.499298096","-83.41870117","1","2014-12-10 02:55:31","2016-07-20 00:01:29"
"378","_NA_","31","0","Kroger","_NA_","6625 Dixie Hwy","_NA_","Clarkston","_NA_","MI","48346","US","_NA_","_NA_","0","0","42.71680069","-83.41609955","1","2014-12-10 02:55:31","2016-07-20 00:01:29"
"379","_NA_","31","0","Kroger","_NA_","26300 Crocker Blvd","_NA_","Harrison Township","_NA_","MI","48045","US","","_NA_","0","1","42.569999695","-82.8506012","1","2016-05-23 19:42:12","2016-07-20 00:01:29"
"380","_NA_","31","0","Kroger","_NA_","2733 Union Lake Rd","_NA_","Commerce Township","_NA_","MI","48382","US","_NA_","_NA_","0","0","42.595199585","-83.44390106","1","2014-12-10 02:55:32","2016-07-20 00:01:29"
"381","_NA_","31","0","Kroger","_NA_","31300 MI Ave","_NA_","Westland","_NA_","MI","48186","US","_NA_","_NA_","0","0","42.511398315","-82.938797","1","2014-12-10 02:55:33","2016-07-20 00:01:29"
"382","_NA_","31","0","Kroger","_NA_","47650 Grand River Ave","_NA_","Novi","_NA_","MI","48374","US","","_NA_","0","1","42.491901398","-83.5184021","1","2015-07-21 15:01:47","2016-07-20 00:01:29"
"383","_NA_","31","0","Kroger","_NA_","47060 W Pontiac Trl","_NA_","Commerce Township","_NA_","MI","48390","US","_NA_","_NA_","0","0","42.52640152","-83.51490021","1","2014-12-10 02:55:34","2016-07-20 00:01:29"
"384","_NA_","31","0","Kroger","_NA_","2910 Center Ave","_NA_","Essexville","_NA_","MI","48732","US","_NA_","_NA_","0","0","43.592899323","-83.84619904","1","2014-12-10 02:55:34","2016-07-20 00:01:29"
"385","_NA_","31","0","Kroger","_NA_","460 N Lapeer Rd","_NA_","Lake Orion","_NA_","MI","48362","US","_NA_","_NA_","0","0","42.790000916","-83.2440033","1","2014-12-10 02:55:35","2016-07-20 00:01:29"
"386","_NA_","31","0","Kroger","_NA_","9968 East Grand River","_NA_","Brighton Township","_NA_","MI","48116","US","638","_NA_","0","1","42.519298553","-83.76270294","1","2015-04-28 19:23:58","2016-07-20 00:01:29"
"387","_NA_","31","0","Kroger","_NA_","20730 Pontiac Trl","_NA_","South Lyon","_NA_","MI","48178","US","_NA_","_NA_","0","0","42.432701111","-83.64730072","1","2014-12-10 02:55:35","2016-07-20 00:01:29"
"388","_NA_","31","0","Kroger","_NA_","8920 W 8 Mile Rd","_NA_","Ferndale","_NA_","MI","48220","US","_NA_","_NA_","0","0","42.446800232","-83.15989685","1","2014-12-10 02:55:36","2016-07-20 00:01:29"
"389","_NA_","31","0","Kroger","_NA_","37187 S Groesbeck Hwy","_NA_","Clinton Township","_NA_","MI","48036","US","_NA_","_NA_","0","0","42.572299957","-82.91200256","1","2014-12-10 02:55:36","2016-07-20 00:01:29"
"390","_NA_","31","0","Kroger","_NA_","3097 S Baldwin Rd","_NA_","Orion","_NA_","MI","48359","US","_NA_","_NA_","0","0","42.734199524","-83.30519867","1","2014-12-10 02:55:36","2016-07-20 00:01:29"
"391","_NA_","31","0","Kroger","_NA_","4888 N Adams Rd","_NA_","Rochester","_NA_","MI","48306","US","_NA_","_NA_","0","0","42.726501465","-83.19920349","1","2014-12-10 02:55:37","2016-07-20 00:01:29"
"392","_NA_","31","0","Kroger","_NA_","5990 Sashabaw Rd","_NA_","Clarkston","_NA_","MI","48346","US","_NA_","_NA_","0","0","42.722198486","-83.37599945","1","2014-12-10 02:55:38","2016-07-20 00:01:29"
"393","_NA_","31","0","Kroger","_NA_","23675 Greenfield Rd","_NA_","Southfield","_NA_","MI","48075","US","_NA_","_NA_","0","0","42.464401245","-83.20310211","1","2014-12-10 02:55:38","2016-07-20 00:01:29"
"394","_NA_","31","0","Kroger","_NA_","8260 23 Mile Rd","_NA_","Shelby Township","_NA_","MI","48316","US","_NA_","_NA_","0","0","42.66960144","-83.03099823","1","2014-12-10 02:55:38","2016-07-20 00:01:29"
"395","_NA_","31","0","Kroger","_NA_","4099 Telegraph Rd","_NA_","Bloomfield Hills","_NA_","MI","48302","US","","_NA_","0","1","42.580501556","-83.27940369","1","2016-05-24 15:06:28","2016-07-20 00:01:29"
"396","_NA_","31","0","Kroger","_NA_","19855 W 12 Mile Rd","_NA_","Southfield","_NA_","MI","48076","US","_NA_","_NA_","0","0","42.500400543","-83.24079895","1","2014-12-10 02:55:39","2016-07-20 00:01:29"
"397","_NA_","31","0","Kroger","_NA_","10805 Highland Rd","_NA_","White Lake","_NA_","MI","48386","US","_NA_","_NA_","0","0","42.647800446","-83.50109863","1","2014-12-10 02:55:39","2016-07-20 00:01:29"
"398","_NA_","31","0","Kroger","_NA_","25780 Middlebelt Rd","_NA_","Farmington Hills","_NA_","MI","48336","US","_NA_","_NA_","0","0","42.483798981","-83.33709717","1","2014-12-10 02:55:40","2016-07-20 00:01:29"
"399","_NA_","31","0","Kroger","_NA_","26130 Gratiot Ave","_NA_","Roseville","_NA_","MI","48066","US","_NA_","_NA_","0","0","42.488098145","-82.94049835","1","2014-12-10 02:55:40","2016-07-20 00:01:29"
"400","_NA_","31","0","Kroger","_NA_","9369 Telegraph Rd","_NA_","Redford","_NA_","MI","48239","US","_NA_","_NA_","0","0","42.362201691","-83.27670288","1","2014-12-10 02:55:40","2016-07-20 00:01:29"
"401","_NA_","31","0","Kroger","_NA_","44525 Ann Arbor Rd W","_NA_","Plymouth","_NA_","MI","48170","US","_NA_","_NA_","0","0","42.357398987","-83.48179626","1","2014-12-10 02:55:41","2016-07-20 00:01:29"
"402","_NA_","31","0","Kroger","_NA_","1905 N Canton Center Rd","_NA_","Canton","_NA_","MI","48187","US","_NA_","_NA_","0","0","42.319499969","-83.49130249","1","2014-12-10 02:55:42","2016-07-20 00:01:29"
"403","_NA_","31","0","Kroger","_NA_","2260 18 Mile Rd","_NA_","Sterling Heights","_NA_","MI","48314","US","_NA_","_NA_","0","0","42.592498779","-83.08670044","1","2014-12-10 02:55:42","2016-07-20 00:01:29"
"404","_NA_","31","0","Kroger","_NA_","13700 E 14 Mile Rd","_NA_","Warren","_NA_","MI","48088","US","_NA_","_NA_","0","0","42.536399841","-82.98750305","1","2014-12-10 02:55:43","2016-07-20 00:01:29"
"405","_NA_","31","0","Kroger","_NA_","5111 Highland Rd","_NA_","Waterford","_NA_","MI","48327","US","_NA_","_NA_","0","0","42.660301208","-83.38800049","1","2014-12-10 02:55:43","2016-07-20 00:01:29"
"406","_NA_","31","0","Kroger","_NA_","4805 Haggerty Rd","_NA_","West Bloomfield","_NA_","MI","48323","US","_NA_","_NA_","0","0","42.564800262","-83.43699646","1","2014-12-10 02:55:43","2016-07-20 00:01:29"
"407","_NA_","31","0","Kroger","_NA_","1100 W Argyle St","_NA_","Jackson","_NA_","MI","49202","US","","_NA_","0","2","42.263599396","-84.42669678","1","2016-05-24 18:50:10","2016-07-20 00:01:29"
"408","_NA_","31","0","Kroger","_NA_","290 W Carleton Rd","_NA_","Hillsdale","_NA_","MI","49242","US","_NA_","_NA_","0","0","41.932498932","-84.6434021","1","2014-12-10 02:55:44","2016-07-20 00:01:29"
"409","_NA_","31","0","Kroger","_NA_","15251 23 Mile Rd","_NA_","Macomb","_NA_","MI","48042","US","_NA_","_NA_","0","0","42.673301697","-82.97419739","1","2014-12-10 02:55:44","2016-07-20 00:01:29"
"410","_NA_","31","0","Kroger","_NA_","21555 21 Mile Rd","_NA_","Macomb","_NA_","MI","48044","US","_NA_","_NA_","0","0","42.644798279","-82.89859772","1","2014-12-10 02:55:45","2016-07-20 00:01:29"
"411","_NA_","31","0","Kroger","_NA_","685 E Maple Rd","_NA_","Birmingham","_NA_","MI","48009","US","_NA_","_NA_","0","0","42.547298431","-83.21050262","1","2014-12-10 02:55:45","2016-07-20 00:01:29"
"412","_NA_","31","0","Kroger","_NA_","7000 Monroe Blvd","_NA_","Taylor","_NA_","MI","48180","US","_NA_","_NA_","0","0","42.257701874","-83.251297","1","2014-12-10 02:55:46","2016-07-20 00:01:29"
"413","_NA_","31","0","Kroger","_NA_","400 S Maple Rd","_NA_","Ann Arbor","_NA_","MI","48103","US","_NA_","_NA_","0","0","42.277301788","-83.78220367","1","2014-12-10 02:55:47","2016-07-20 00:01:29"
"414","_NA_","31","0","Kroger","_NA_","3200 Carpenter Rd","_NA_","Ypsilanti","_NA_","MI","48197","US","_NA_","_NA_","0","0","42.242599487","-83.68219757","1","2014-12-10 02:55:47","2016-07-20 00:01:29"
"415","_NA_","31","0","Kroger","_NA_","36430 Ford Rd","_NA_","Westland","_NA_","MI","48185","US","_NA_","_NA_","0","0","42.326099396","-83.40029907","1","2014-12-10 02:55:47","2016-07-20 00:01:29"
"416","_NA_","31","0","Kroger","_NA_","2060 Dix Hwy","_NA_","Lincoln Park","_NA_","MI","48146","US","","_NA_","0","1","42.254901886","-83.19550323","1","2016-05-23 16:58:02","2016-07-20 00:01:29"
"417","_NA_","31","0","Kroger","_NA_","13333 Eureka Rd","_NA_","Southgate","_NA_","MI","48195","US","_NA_","_NA_","0","0","42.197601318","-83.18720245","1","2014-12-10 02:55:48","2016-07-20 00:01:29"
"418","_NA_","31","0","Kroger","_NA_","23303 MI Ave","_NA_","Dearborn","_NA_","MI","48124","US","_NA_","_NA_","0","0","42.294898987","-83.20339966","1","2014-12-10 02:55:48","2016-07-20 00:01:29"
"419","_NA_","31","0","Kroger","_NA_","5866 Middlebelt Rd","_NA_","Garden City","_NA_","MI","48135","US","","_NA_","0","1","42.328201294","-83.32910156","1","2015-11-19 14:37:18","2016-07-20 00:01:29"
"420","_NA_","31","0","Kroger","_NA_","45540 MI Ave","_NA_","Canton","_NA_","MI","48188","US","_NA_","_NA_","0","0","42.29529953","-83.44490051","1","2014-12-10 02:55:49","2016-07-20 00:01:29"
"421","_NA_","31","0","Kroger","_NA_","2058 25 Mile Rd","_NA_","Shelby Township","_NA_","MI","48316","US","_NA_","_NA_","0","0","42.695800781","-83.09320068","1","2014-12-10 02:55:49","2016-07-20 00:01:29"
"422","_NA_","31","0","Kroger","_NA_","66900 Gratiot Ave","_NA_","Richmond","_NA_","MI","48062","US","_NA_","_NA_","0","0","42.793899536","-82.73439789","1","2014-12-10 02:55:51","2016-07-20 00:01:29"
"423","_NA_","31","0","Kroger","_NA_","2010 Whittaker Rd","_NA_","Ypsilanti","_NA_","MI","48197","US","_NA_","_NA_","0","0","42.212100983","-83.62090302","1","2014-12-10 02:55:51","2016-07-20 00:01:29"
"424","_NA_","31","0","Kroger","_NA_","20645 Gibraltar Rd","_NA_","Brownstown Township","_NA_","MI","48183","US","","_NA_","0","1","42.093601227","-83.23470306","1","2015-11-19 16:38:09","2016-07-20 00:01:29"
"425","_NA_","31","0","Kroger","_NA_","9741 Dixie Hwy","_NA_","Clarkston","_NA_","MI","48348","US","_NA_","_NA_","0","0","42.757301331","-83.48339844","1","2014-12-10 02:55:52","2016-07-20 00:01:29"
"426","_NA_","31","0","Kroger","_NA_","20903 Harper Ave","_NA_","Harper Woods","_NA_","MI","48225","US","_NA_","_NA_","0","0","42.449699402","-82.915802","1","2014-12-10 02:55:52","2016-07-20 00:01:29"
"427","_NA_","31","0","Kroger","_NA_","7084 Miller Rd","_NA_","Swartz Creek","_NA_","MI","48473","US","_NA_","_NA_","0","0","42.964099884","-83.81520081","1","2014-12-10 02:55:52","2016-07-20 00:01:29"
"428","_NA_","31","0","Kroger","_NA_","700 State St.","_NA_","Davison","_NA_","MI","48423","US","_NA_","_NA_","0","0","43.036399841","-83.51629639","1","2014-12-10 02:55:53","2016-07-20 00:01:29"
"429","_NA_","31","0","Kroger","_NA_","1215 24th St","_NA_","Port Huron","_NA_","MI","48060","US","_NA_","_NA_","0","0","42.970401764","-82.45480347","1","2014-12-10 02:55:53","2016-07-20 00:01:29"
"430","_NA_","31","0","Kroger","_NA_","16450 26 Mile Rd","_NA_","Macomb","_NA_","MI","48042","US","_NA_","_NA_","0","0","42.714298248","-82.96240234","1","2014-12-10 02:55:53","2016-07-20 00:01:29"
"431","_NA_","31","0","Kroger","_NA_","108 W Highland Rd","_NA_","Howell","_NA_","MI","48843","US","_NA_","_NA_","0","0","42.624298096","-83.92780304","1","2014-12-10 02:55:54","2016-07-20 00:01:29"
"432","_NA_","31","0","Kroger","_NA_","9700 Chilson Commons","_NA_","Pinckney","_NA_","MI","48169","US","_NA_","_NA_","0","0","42.462001801","-83.83100128","1","2014-12-10 02:55:55","2016-07-20 00:01:29"
"433","_NA_","31","0","Kroger","_NA_","35000 23 Mile Rd","_NA_","New Baltimore","_NA_","MI","48047","US","_NA_","_NA_","0","0","42.674701691","-82.75810242","1","2014-12-10 02:55:55","2016-07-20 00:01:29"
"434","_NA_","31","0","Kroger","_NA_","2905 Union Lake Rd.","_NA_","Commerce Twp","_NA_","MI","48382","US","_NA_","_NA_","0","0","42.595298767","-83.44400024","1","2014-12-10 02:55:55","2016-07-20 00:01:29"
"435","_NA_","31","0","Kroger","_NA_","14945 23 Mile Rd.","_NA_","Shelby Township","_NA_","MI","48315","US","_NA_","_NA_","0","0","42.671199799","-82.97889709","1","2014-12-10 02:55:56","2016-07-20 00:01:29"
"436","_NA_","31","0","Kroger","_NA_","4672 State St","_NA_","Saginaw","_NA_","MI","48603","US","_NA_","_NA_","0","0","43.437900543","-84.00900269","1","2014-12-10 02:55:56","2016-07-20 00:01:29"
"437","_NA_","31","0","Kroger","_NA_","30991 Woodward Ave","_NA_","Royal Oak","_NA_","MI","48073","US","_NA_","_NA_","0","0","42.517398834","-83.188797","1","2014-12-10 02:55:56","2016-07-20 00:01:29"
"438","_NA_","31","0","Kroger","_NA_","16919 Kercheval Ave","_NA_","Grosse Pointe Park","_NA_","MI","48230","US","_NA_","_NA_","0","0","42.389900208","-82.91750336","1","2014-12-10 02:55:57","2016-07-20 00:01:29"
"439","_NA_","31","0","Kroger","_NA_","1919 S Industrial Hwy","_NA_","Ann Arbor","_NA_","MI","48104","US","_NA_","_NA_","0","0","42.259899139","-83.73670197","1","2014-12-10 02:55:57","2016-07-20 00:01:29"
"440","_NA_","31","0","Kroger","_NA_","4884 Marsh Rd","_NA_","Okemos","_NA_","MI","48864","US","_NA_","_NA_","0","0","42.723701477","-84.41290283","1","2014-12-10 02:55:57","2016-07-20 00:01:29"
"441","_NA_","31","0","Kroger","_NA_","1315 E M 21","_NA_","Owosso","_NA_","MI","48867","US","_NA_","_NA_","0","0","42.999099731","-84.14550018","1","2014-12-10 02:55:58","2016-07-20 00:01:29"
"442","_NA_","31","0","Kroger","_NA_","900 S Us Highway 27","_NA_","Saint Johns","_NA_","MI","48879","US","_NA_","_NA_","0","0","42.991798401","-84.54689789","1","2014-12-10 02:55:59","2016-07-20 00:01:29"
"443","_NA_","31","0","Kroger","_NA_","443 Mall Ct","_NA_","Lansing","_NA_","MI","48912","US","_NA_","_NA_","0","0","42.738601685","-84.50749969","1","2014-12-10 02:55:59","2016-07-20 00:01:29"
"444","_NA_","31","0","Kroger","_NA_","921 W Holmes Rd","_NA_","Lansing","_NA_","MI","48910","US","_NA_","_NA_","0","0","42.694900513","-84.56520081","1","2014-12-10 02:56:00","2016-07-20 00:01:29"
"445","_NA_","31","0","Kroger","_NA_","2495 Cedar St","_NA_","Holt","_NA_","MI","48842","US","887","_NA_","0","1","42.654201508","-84.53209686","1","2015-04-28 20:35:21","2016-07-20 00:01:29"
"446","_NA_","31","0","Kroger","_NA_","6430 W Saginaw Hwy","_NA_","Lansing","_NA_","MI","48917","US","888","_NA_","0","1","42.741600037","-84.64389801","1","2015-04-28 21:26:22","2016-07-20 00:01:29"
"447","_NA_","31","0","Kroger","_NA_","4080 E Blue Grass Rd","_NA_","Mount Pleasant","_NA_","MI","48858","US","_NA_","_NA_","0","0","43.572299957","-84.76499939","1","2014-12-10 02:56:00","2016-07-20 00:01:29"
"448","_NA_","31","0","Kroger","_NA_","1550 W Lake Lansing Rd","_NA_","East Lansing","_NA_","MI","48823","US","_NA_","_NA_","0","0","42.762298584","-84.50460052","1","2014-12-10 02:56:01","2016-07-20 00:01:29"
"449","_NA_","31","0","Kroger","_NA_","524 E 16th St","_NA_","Indianapolis","_NA_","IN","46202","US","_NA_","_NA_","0","0","39.789199829","-86.14800262","1","2014-12-10 02:56:01","2016-07-20 00:01:29"
"450","_NA_","31","0","Kroger","_NA_","2630 W MI St","_NA_","Indianapolis","_NA_","IN","46222","US","_NA_","_NA_","0","0","39.668300629","-86.10079956","1","2014-12-10 02:56:02","2016-07-20 00:01:29"
"451","_NA_","31","0","Kroger","_NA_","5173 W WA St","_NA_","Indianapolis","_NA_","IN","46241","US","_NA_","_NA_","0","0","47.465301514","-120.3389969","1","2014-12-10 02:56:02","2016-07-20 00:01:29"
"452","_NA_","31","0","Kroger","_NA_","2821 S. WA","_NA_","Kokomo","_NA_","IN","46902","US","_NA_","_NA_","0","0","40.486400604","-86.13359833","1","2014-12-10 02:56:03","2016-07-20 00:01:29"
"453","_NA_","31","0","Kroger","_NA_","1440 Darlington Ave","_NA_","Crawfordsville","_NA_","IN","47933","US","_NA_","_NA_","0","0","40.046100616","-86.88230133","1","2014-12-10 02:56:04","2016-07-20 00:01:29"
"454","_NA_","31","0","Kroger","_NA_","2629 E 65th St","_NA_","Indianapolis","_NA_","IN","46220","US","","_NA_","0","2","39.875598907","-86.1190033","1","2014-12-10 02:56:04","2019-08-29 10:42:17"
"455","_NA_","31","0","Kroger","_NA_","528 S College Ave","_NA_","Bloomington","_NA_","IN","47403","US","","_NA_","0","1","39.159900665","-86.53569794","1","2016-05-25 21:25:52","2016-07-20 00:01:29"
"456","_NA_","31","0","Kroger","_NA_","202 S Main St","_NA_","Rushville","_NA_","IN","46173","US","96","_NA_","0","1","39.605899811","-85.44290161","1","2015-03-13 16:13:40","2016-07-20 00:01:29"
"457","_NA_","31","0","Kroger","_NA_","7101 E 10th St","_NA_","Indianapolis","_NA_","IN","46219","US","100","_NA_","0","2","39.780700684","-86.04190063","1","2015-03-31 20:09:03","2017-01-26 17:54:28"
"458","_NA_","31","0","Kroger","_NA_","6108 E 46th St","_NA_","Indianapolis","_NA_","IN","46226","US","","_NA_","0","0","39.842098236","-86.0625","1","2015-10-06 22:00:12","2016-07-20 00:01:29"
"459","_NA_","31","0","Kroger","_NA_","605 N Dixon Rd","_NA_","Kokomo","_NA_","IN","46901","US","_NA_","_NA_","0","0","40.491500854","-86.16680145","1","2014-12-10 02:56:06","2016-07-20 00:01:29"
"460","_NA_","31","0","Kroger","_NA_","3361 KY Ave","_NA_","Indianapolis","_NA_","IN","46221","US","_NA_","_NA_","0","0","36.114398956","-95.93910217","1","2014-12-10 02:56:06","2016-07-20 00:01:29"
"461","_NA_","31","0","Kroger","_NA_","905 N Green St","_NA_","Brownsburg","_NA_","IN","46112","US","115","_NA_","0","1","39.855201721","-86.39029694","1","2015-04-02 12:10:25","2016-07-20 00:01:29"
"462","_NA_","31","0","Kroger","_NA_","680 Twin Aire Dr","_NA_","Indianapolis","_NA_","IN","46203","US","_NA_","_NA_","0","0","39.757900238","-86.11499786","1","2014-12-10 02:56:08","2016-07-20 00:01:29"
"463","_NA_","31","0","Kroger","_NA_","1930 E Main St","_NA_","Plainfield","_NA_","IN","46168","US","_NA_","_NA_","0","0","39.712001801","-86.37550354","1","2014-12-10 02:56:08","2016-07-20 00:01:29"
"464","_NA_","31","0","Kroger","_NA_","916 N Main St","_NA_","Monticello","_NA_","IN","47960","US","_NA_","_NA_","0","0","40.756099701","-86.76460266","1","2014-12-10 02:56:08","2016-07-20 00:01:29"
"465","_NA_","31","0","Kroger","_NA_","6220 Guilford Ave","_NA_","Indianapolis","_NA_","IN","46220","US","","_NA_","0","2","39.868801117","-86.14389801","1","2014-12-10 02:56:09","2019-08-29 11:04:16"
"466","_NA_","31","0","Kroger","_NA_","100 Forest Park Plz","_NA_","Brazil","_NA_","IN","47834","US","248","_NA_","0","1","39.524799347","-87.11460114","1","2015-11-30 17:28:00","2016-07-20 00:01:29"
"467","_NA_","31","0","Kroger","_NA_","1401 W King St","_NA_","Decatur","_NA_","IL","62522","US","_NA_","_NA_","0","0","39.847801208","-88.97889709","1","2014-12-10 02:56:09","2016-07-20 00:01:29"
"468","_NA_","31","0","Kroger","_NA_","518 E Jasper St","_NA_","Paris","_NA_","IL","61944","US","_NA_","_NA_","0","0","39.60369873","-87.68840027","1","2014-12-10 02:56:10","2016-07-20 00:01:29"
"469","_NA_","31","0","Kroger","_NA_","1741 E Chestnut St","_NA_","Canton","_NA_","IL","61520","US","_NA_","_NA_","0","0","40.557498932","-90.00569916","1","2014-12-10 02:56:10","2016-07-20 00:01:29"
"470","_NA_","31","0","Kroger","_NA_","1550 E College Ave","_NA_","Normal","_NA_","IL","61761","US","_NA_","_NA_","0","0","40.511798859","-88.95610046","1","2014-12-10 02:56:10","2016-07-20 00:01:29"
"471","_NA_","31","0","Kroger","_NA_","929 S 13th St","_NA_","Decatur","_NA_","IN","46733","US","_NA_","_NA_","0","0","40.819400787","-84.93609619","1","2014-12-10 02:56:10","2016-07-20 00:01:29"
"472","_NA_","31","0","Kroger","_NA_","7008 Bluffton Rd","_NA_","Fort Wayne","_NA_","IN","46809","US","_NA_","_NA_","0","0","41.01789856","-85.16970062","1","2014-12-10 02:56:12","2016-07-20 00:01:29"
"473","_NA_","31","0","Kroger","_NA_","1125 W State Blvd","_NA_","Fort Wayne","_NA_","IN","46808","US","_NA_","_NA_","0","0","41.095001221","-85.15709686","1","2014-12-10 02:56:12","2016-07-20 00:01:29"
"474","_NA_","31","0","Kroger","_NA_","1555 S Harrison Plz","_NA_","Bluffton","_NA_","IN","46714","US","_NA_","_NA_","0","0","40.72069931","-85.16750336","1","2014-12-10 02:56:12","2016-07-20 00:01:29"
"475","_NA_","31","0","Kroger","_NA_","6310 E State Blvd","_NA_","Fort Wayne","_NA_","IN","46815","US","_NA_","_NA_","0","0","41.099998474","-85.05899811","1","2014-12-10 02:56:13","2016-07-20 00:01:29"
"476","_NA_","31","0","Kroger","_NA_","2040 Peace Tree Vlg","_NA_","Rochester","_NA_","IN","46975","US","_NA_","_NA_","0","0","41.053001404","-86.21920013","1","2014-12-10 02:56:13","2016-07-20 00:01:29"
"477","_NA_","31","0","Kroger","_NA_","601 West South Main","_NA_","Carrollton","_NA_","IL","62016","US","_NA_","_NA_","0","0","39.300598145","-90.40979767","1","2014-12-10 02:56:14","2016-07-20 00:01:29"
"478","_NA_","31","0","Kroger","_NA_","252 N Main St","_NA_","White Hall","_NA_","IL","62092","US","_NA_","_NA_","0","0","39.439498901","-90.40280151","1","2014-12-10 02:56:14","2016-07-20 00:01:29"
"479","_NA_","31","0","Kroger","_NA_","5718 Crawfordsville Rd","_NA_","Indianapolis","_NA_","IN","46224","US","500","_NA_","0","2","39.798599243","-86.26190186","1","2015-12-15 17:25:04","2016-07-20 00:01:29"
"480","_NA_","31","0","Kroger","_NA_","200 Huck Finnn S/c","_NA_","Hannibal","_NA_","MO","63401","US","_NA_","_NA_","0","0","39.705001831","-91.42410278","1","2014-12-10 02:56:15","2016-07-20 00:01:29"
"481","_NA_","31","0","Kroger","_NA_","604 E Booneslick Rd","_NA_","Warrenton","_NA_","MO","63383","US","_NA_","_NA_","0","0","38.810798645","-91.1411972","1","2014-12-10 02:56:15","2016-07-20 00:01:29"
"482","_NA_","31","0","Kroger","_NA_","1405 W Garfield Ave","_NA_","Bartonville","_NA_","IL","61607","US","_NA_","_NA_","0","0","40.646198273","-89.67510223","1","2014-12-10 02:56:17","2016-07-20 00:01:29"
"483","_NA_","31","0","Kroger","_NA_","605 W 4th St","_NA_","Rolla","_NA_","MO","65401","US","_NA_","_NA_","0","0","37.94670105","-91.77619934","1","2014-12-10 02:56:17","2016-07-20 00:01:29"
"484","_NA_","31","0","Kroger","_NA_","415 N Spruce St","_NA_","Nokomis","_NA_","IL","62075","US","_NA_","_NA_","0","0","39.304901123","-89.28929901","1","2014-12-10 02:56:17","2016-07-20 00:01:29"
"485","_NA_","31","0","Kroger","_NA_","3328 Georgia St","_NA_","Louisiana","_NA_","MO","63353","US","_NA_","_NA_","0","0","39.433700562","-91.07029724","1","2014-12-10 02:56:17","2016-07-20 00:01:29"
"486","_NA_","31","0","Kroger","_NA_","1001 W Jackson St","_NA_","Morton","_NA_","IL","61550","US","_NA_","_NA_","0","0","40.621101379","-89.46839905","1","2014-12-10 02:56:18","2016-07-20 00:01:29"
"487","_NA_","31","0","Kroger","_NA_","#20 Cherry Tree S/c","_NA_","WA","_NA_","IL","61571","US","_NA_","_NA_","0","0","40.694099426","-89.41750336","1","2014-12-10 02:56:18","2016-07-20 00:01:29"
"488","_NA_","31","0","Kroger","_NA_","603 S 4th St","_NA_","Chillicothe","_NA_","IL","61523","US","_NA_","_NA_","0","0","40.90309906","-89.49539948","1","2014-12-10 02:56:18","2016-07-20 00:01:29"
"489","_NA_","31","0","Kroger","_NA_","2701 Columbus St","_NA_","Ottawa","_NA_","IL","61350","US","_NA_","_NA_","0","0","41.370098114","-88.83789825","1","2014-12-10 02:56:19","2016-07-20 00:01:29"
"490","_NA_","31","0","Kroger","_NA_","201 S Main St","_NA_","East Peoria","_NA_","IL","61611","US","_NA_","_NA_","0","0","40.664699554","-89.5809021","1","2014-12-10 02:56:19","2016-07-20 00:01:29"
"491","_NA_","31","0","Kroger","_NA_","1 Troy Sq","_NA_","Troy","_NA_","MO","63379","US","_NA_","_NA_","0","0","38.988399506","-90.97609711","1","2014-12-10 02:56:19","2016-07-20 00:01:29"
"492","_NA_","31","0","Kroger","_NA_","3103 W Harmon Hwy","_NA_","Peoria","_NA_","IL","61604","US","_NA_","_NA_","0","0","40.682598114","-89.64260101","1","2014-12-10 02:56:21","2016-07-20 00:01:29"
"493","_NA_","31","0","Kroger","_NA_","5810 E 71st St","_NA_","Indianapolis","_NA_","IN","46220","US","","_NA_","0","3","39.884799957","-86.06890106","1","2016-02-03 15:47:52","2017-01-27 10:38:05"
"494","_NA_","31","0","Kroger","_NA_","4445 E 10th St","_NA_","Indianapolis","_NA_","IN","46201","US","","_NA_","0","1","39.77930069","-86.09359741","1","2016-03-10 16:19:07","2016-07-20 00:01:29"
"495","_NA_","31","0","Kroger","_NA_","1475 Woodlawn Rd","_NA_","Lincoln","_NA_","IL","62656","US","_NA_","_NA_","0","0","40.156398773","-89.39289856","1","2014-12-10 02:56:22","2016-07-20 00:01:29"
"496","_NA_","31","0","Kroger","_NA_","1502 N Main St","_NA_","Bloomington","_NA_","IL","61701","US","_NA_","_NA_","0","0","40.49420166","-88.99490356","1","2014-12-10 02:56:22","2016-07-20 00:01:29"
"497","_NA_","31","0","Kroger","_NA_","821 Lincoln Hwy W","_NA_","New Haven","_NA_","IN","46774","US","_NA_","_NA_","0","0","41.068901062","-85.04139709","1","2014-12-10 02:56:22","2016-07-20 00:01:29"
